City_ID,City,Lat,Lng,Max Temp,Humidity,Cloudiness,Wind Speed,Country,Date
0,vorgashor,67.5833,63.95,244.71,97,9,2.53,RU,04-02-2025
1,grytviken,-54.2811,-36.5092,278.83,93,100,2.92,GS,03-02-2025
2,jamestown,42.097,-79.2353,281.95,76,75,5.14,US,03-02-2025
3,pico truncado,-46.7949,-67.9573,292.01,15,39,6.89,AR,03-02-2025
4,blackmans bay,-43.0167,147.3167,295.22,69,77,2.61,AU,04-02-2025
5,linxia chengguanzhen,35.6003,103.2064,255.22,95,17,1.48,CN,04-02-2025
6,albany,42.6001,-73.9662,276.28,79,100,0.89,US,03-02-2025
7,bethel,41.3712,-73.414,279.94,78,100,1.34,US,03-02-2025
8,hawaiian paradise park,19.5933,-154.9731,298.65,69,100,3.6,US,03-02-2025
9,invercargill,-46.4,168.35,287.6,70,40,1.34,NZ,04-02-2025
10,longyearbyen,78.2186,15.6401,272.06,59,20,9.77,SJ,03-02-2025
11,kodiak,57.79,-152.4072,274.88,75,0,2.57,US,03-02-2025
12,saint-pierre,-21.3393,55.4781,301.97,84,0,4.63,RE,04-02-2025
13,stanley,54.868,-1.6985,282.16,77,40,3.6,GB,03-02-2025
14,iqaluit,63.7506,-68.5145,243.0,61,40,2.06,CA,03-02-2025
15,edinburgh of the seven seas,-37.0676,-12.3116,288.04,72,100,6.54,SH,03-02-2025
16,new norfolk,-42.7826,147.0587,295.21,47,81,1.35,AU,04-02-2025
17,bredasdorp,-34.5322,20.0403,291.61,73,0,1.42,ZA,03-02-2025
18,fortaleza,-3.7227,-38.5247,302.22,74,20,3.6,BR,03-02-2025
19,lata,40.1629,-8.3327,278.36,85,0,1.29,PT,03-02-2025
20,dudinka,69.4058,86.1778,251.4,89,100,3.98,RU,04-02-2025
21,wailua homesteads,22.0669,-159.378,298.59,70,75,4.63,US,03-02-2025
22,port-aux-francais,-49.35,70.2167,277.23,72,98,4.28,TF,04-02-2025
23,georgetown,5.4112,100.3354,298.12,77,20,1.54,MY,04-02-2025
24,puerto natales,-51.7236,-72.4875,284.4,54,75,9.77,CL,03-02-2025
25,yellowknife,62.456,-114.3525,247.9,76,75,2.06,CA,03-02-2025
26,nantucket,41.2835,-70.0995,276.56,87,75,4.12,US,03-02-2025
27,yantzaza,-3.8278,-78.7594,298.81,85,91,0.7,EC,03-02-2025
28,uliastay,47.7417,96.8444,246.22,96,99,1.85,MN,04-02-2025
29,sandnessjoen,66.0217,12.6316,272.21,55,0,3.6,NO,03-02-2025
30,plettenberg bay,-34.0527,23.3716,292.31,87,0,0.71,ZA,03-02-2025
31,west island,-12.1568,96.8225,299.14,94,75,6.17,CC,04-02-2025
32,the pas,53.8251,-101.2541,253.16,71,0,7.2,CA,03-02-2025
33,mount gambier,-37.8333,140.7667,292.67,82,44,2.89,AU,04-02-2025
34,atafu village,-8.5421,-172.5159,301.35,71,98,6.23,TK,04-02-2025
35,enewetak,11.3474,162.3373,299.88,67,90,9.99,MH,04-02-2025
36,sitka,57.0531,-135.33,275.09,30,0,4.12,US,03-02-2025
37,pacific grove,36.6177,-121.9166,290.58,76,0,8.49,US,03-02-2025
38,margaret river,-33.95,115.0667,286.91,86,0,5.17,AU,04-02-2025
39,afaahiti,-17.75,-149.2833,299.49,73,11,4.45,PF,03-02-2025
40,parambu,-6.2111,-40.6944,299.71,53,98,1.44,BR,03-02-2025
41,newman,37.3138,-121.0208,290.4,59,100,2.68,US,03-02-2025
42,susuman,62.7833,148.1667,224.81,100,80,0.17,RU,04-02-2025
43,luderitz,-26.6481,15.1594,290.94,85,4,4.73,NA,03-02-2025
44,dhidhdhoo,6.8833,73.1,300.64,75,62,3.05,MV,04-02-2025
45,ribeira grande,38.5167,-28.7,289.37,72,75,7.15,PT,03-02-2025
46,adamstown,-25.066,-130.1015,297.99,72,72,6.3,PN,03-02-2025
47,nizhnesortymskiy,62.4397,71.7603,254.02,99,65,3.47,RU,04-02-2025
48,sonoita,31.85,-112.8333,301.54,16,64,1.96,MX,03-02-2025
49,bamboo flat,11.7,92.7167,296.33,82,15,2.82,IN,04-02-2025
50,argostolion,38.1811,20.489,284.85,87,13,0.69,GR,03-02-2025
51,hermanus,-34.4187,19.2345,289.15,75,0,2.6,ZA,03-02-2025
52,talnakh,69.4865,88.3972,251.87,99,100,2.5,RU,04-02-2025
53,hinton,53.4001,-117.5857,250.76,81,100,1.56,CA,03-02-2025
54,papatowai,-46.5619,169.4708,286.98,64,79,3.29,NZ,04-02-2025
55,raduzhny,62.0961,77.475,254.71,97,43,3.29,RU,04-02-2025
56,college,64.8569,-147.8028,257.85,74,75,0.0,US,03-02-2025
57,waitangi,-43.9535,-176.5597,287.49,88,70,2.24,NZ,04-02-2025
58,punta arenas,-53.15,-70.9167,284.21,54,40,10.8,CL,03-02-2025
59,ushuaia,-54.8,-68.3,281.96,53,75,8.75,AR,03-02-2025
60,lerwick,60.1545,-1.1494,282.04,87,100,11.71,GB,03-02-2025
61,lebu,-37.6167,-73.65,290.51,62,6,4.69,CL,03-02-2025
62,mount isa,-20.7333,139.5,298.02,94,100,3.09,AU,04-02-2025
63,mao,39.8885,4.2658,281.46,93,0,3.09,ES,03-02-2025
64,puerto ayora,-0.7393,-90.3518,299.01,91,82,1.79,EC,03-02-2025
65,shagonar,51.5333,92.8,252.65,97,100,0.45,RU,04-02-2025
66,port elizabeth,-33.918,25.5701,294.44,93,0,0.89,ZA,03-02-2025
67,choibalsan,48.0667,114.5,254.67,99,100,2.87,MN,04-02-2025
68,santa ana,33.7456,-117.8678,296.44,63,75,3.6,US,03-02-2025
69,burang,30.25,81.1667,257.97,18,17,1.86,CN,04-02-2025
70,island harbour,50.724,-1.2758,281.49,94,6,2.68,GB,03-02-2025
71,esquel,-42.9,-71.3167,286.44,51,83,5.22,AR,03-02-2025
72,crane,31.3974,-102.3501,299.47,16,0,2.76,US,03-02-2025
73,santiago papasquiaro,25.046,-105.4208,298.74,9,8,1.95,MX,03-02-2025
74,tiksi,71.6872,128.8694,245.69,99,100,2.95,RU,04-02-2025
75,petropavlovsk-kamchatsky,53.0452,158.6483,254.48,50,20,5.0,RU,04-02-2025
76,nova sintra,14.8667,-24.7167,295.3,70,34,10.02,CV,03-02-2025
77,nanao,37.05,136.9667,274.05,72,98,4.72,JP,04-02-2025
78,flying fish cove,-10.4217,105.6791,297.97,94,100,7.2,CX,04-02-2025
79,novyy urgal,51.0736,132.5642,248.04,100,99,0.81,RU,04-02-2025
80,hasaki,35.7333,140.8333,280.65,70,83,3.47,JP,04-02-2025
81,ghadamis,30.1337,9.5007,283.91,39,0,1.88,LY,03-02-2025
82,cidreira,-30.1811,-50.2056,299.06,83,1,7.07,BR,03-02-2025
83,novo aripuana,-5.1206,-60.3797,300.19,91,93,0.66,BR,03-02-2025
84,cabo san lucas,22.8909,-109.9124,300.32,29,0,3.09,MX,03-02-2025
85,mili,6.0815,171.735,300.16,84,57,10.82,MH,04-02-2025
86,ilulissat,69.2167,-51.1,258.16,85,75,5.66,GL,03-02-2025
87,leo,11.1,-2.1,297.96,19,53,3.37,BF,03-02-2025
88,bilibino,68.0546,166.4372,240.14,99,100,1.23,RU,04-02-2025
89,qaqortoq,60.7167,-46.0333,250.39,94,13,2.27,GL,03-02-2025
90,atherton,53.5237,-2.4935,282.2,70,100,1.79,GB,03-02-2025
91,monsummano terme,43.8704,10.8123,283.83,77,0,0.89,IT,03-02-2025
92,tazacorte,28.629,-17.9293,290.69,78,40,5.66,ES,03-02-2025
93,acarau,-2.8856,-40.12,300.22,80,75,6.52,BR,03-02-2025
94,sisimiut,66.9395,-53.6735,255.69,96,100,3.4,GL,03-02-2025
95,holualoa,19.6228,-155.9522,297.9,61,20,2.57,US,03-02-2025
96,beipiao,41.7919,120.7792,256.54,70,0,1.55,CN,04-02-2025
97,ad dabbah,18.05,30.95,297.45,28,0,4.66,SD,03-02-2025
98,lihue,21.9789,-159.3672,298.92,62,75,4.63,US,03-02-2025
99,baoqing,46.3317,132.2111,249.07,98,100,2.06,CN,04-02-2025
100,nemuro,43.3236,145.575,272.89,84,100,14.05,JP,04-02-2025
101,puerto cabezas,14.0351,-83.3888,299.65,78,97,5.02,NI,03-02-2025
102,whitehorse,60.7161,-135.0538,257.49,84,91,2.68,CA,03-02-2025
103,keflavik,64.0049,-22.5624,275.39,75,75,8.23,IS,03-02-2025
104,dolores,-36.3132,-57.6792,307.17,30,69,7.38,AR,03-02-2025
105,batroun,34.2553,35.6581,286.5,72,2,1.58,LB,03-02-2025
106,guiuan,11.0333,125.7247,300.08,77,35,7.86,PH,04-02-2025
107,saipan,15.1355,145.701,299.54,78,0,3.09,MP,04-02-2025
108,san patricio,28.017,-97.5169,301.12,59,60,5.55,US,03-02-2025
109,puerto baquerizo moreno,-0.9,-89.6,302.7,62,40,5.14,EC,03-02-2025
110,vila franca do campo,37.7167,-25.4333,291.42,99,100,2.31,PT,03-02-2025
111,pahrump,36.2083,-115.9839,297.73,20,95,3.58,US,03-02-2025
112,bodo,67.28,14.405,267.17,53,0,15.95,NO,03-02-2025
113,magnitogorsk,53.4186,59.0472,266.61,100,100,3.0,RU,04-02-2025
114,utrik,11.2278,169.8474,299.72,70,55,8.75,MH,04-02-2025
115,chernyshevskiy,63.0128,112.4714,252.29,97,100,7.21,RU,04-02-2025
116,trinity beach,-16.7888,145.6968,298.09,100,75,3.6,AU,04-02-2025
117,antsiranana,-12.2787,49.2917,298.58,86,100,4.81,MG,04-02-2025
118,hilo,19.7297,-155.09,298.77,69,100,3.6,US,03-02-2025
119,fort mcmurray,56.7268,-111.381,254.51,83,75,3.07,CA,03-02-2025
120,labrador city,52.9463,-66.9114,258.1,72,75,2.06,CA,03-02-2025
121,richards bay,-28.783,32.0377,296.74,92,57,2.25,ZA,03-02-2025
122,garissa,-0.4536,39.6401,298.51,64,43,5.62,KE,04-02-2025
123,livno,43.8269,17.0078,271.67,82,27,3.97,BA,03-02-2025
124,chela,34.069,104.4619,263.55,67,0,1.08,CN,04-02-2025
125,anadyr,64.75,177.4833,272.43,86,40,14.0,RU,04-02-2025
126,celestun,20.8667,-90.4,299.09,72,91,5.87,MX,03-02-2025
127,kerikeri,-35.2268,173.9474,294.87,63,48,1.9,NZ,04-02-2025
128,klyuchi,52.2667,79.1667,268.93,96,99,1.21,RU,04-02-2025
129,hithadhoo,-0.6,73.0833,300.72,73,100,2.29,MV,04-02-2025
130,san jose,37.3394,-121.895,288.83,71,100,5.66,US,03-02-2025
131,filingue,14.3521,3.3168,297.72,14,44,4.99,NE,03-02-2025
132,morondava,-20.2833,44.2833,300.73,84,95,2.38,MG,04-02-2025
133,flin flon,54.7682,-101.865,253.95,82,100,4.74,CA,03-02-2025
134,arraial do cabo,-22.9661,-42.0278,303.13,73,40,4.63,BR,03-02-2025
135,essaouira,31.5125,-9.77,287.74,75,2,8.66,MA,03-02-2025
136,praia da vitoria,38.7333,-27.0667,286.54,86,100,6.27,PT,03-02-2025
137,ust-nera,64.5667,143.2,230.64,99,78,1.49,RU,04-02-2025
138,korsakov,46.6328,142.7813,268.06,87,100,8.92,RU,04-02-2025
139,nouadhibou,20.931,-17.0347,290.88,78,0,9.83,MR,03-02-2025
140,fort bragg,35.139,-79.006,293.06,50,0,6.17,US,03-02-2025
141,egilsstadir,65.2653,-14.3948,274.26,63,40,14.61,IS,03-02-2025
142,ellsworth,44.5434,-68.4195,273.46,89,75,4.63,US,03-02-2025
143,yuzhno-kurilsk,44.0306,145.8556,272.0,78,100,11.57,RU,04-02-2025
144,udachny,66.4167,112.4,259.94,91,100,14.42,RU,04-02-2025
145,bam,29.106,58.357,279.51,27,0,0.42,IR,04-02-2025
146,floro,61.5996,5.0328,279.13,87,100,10.29,NO,03-02-2025
147,san fernando,15.0286,120.6898,299.0,87,99,1.97,PH,04-02-2025
148,sibay,52.7181,58.6658,268.62,97,100,2.08,RU,04-02-2025
149,chonchi,-42.6128,-73.8092,288.22,95,100,0.45,CL,03-02-2025
150,hede,33.7681,120.2517,270.11,49,0,1.87,CN,04-02-2025
151,east grand forks,47.93,-97.0245,257.28,66,100,3.58,US,03-02-2025
152,nabire,-3.3667,135.4833,297.39,90,100,2.14,ID,04-02-2025
153,cuauhtemoc,28.4167,-106.8667,294.31,13,97,2.55,MX,03-02-2025
154,mejit,10.2753,170.8646,299.79,76,73,8.97,MH,04-02-2025
155,heishan,41.6892,122.1128,258.79,50,0,5.12,CN,04-02-2025
156,hirado,33.3597,129.5531,275.93,70,100,13.74,JP,04-02-2025
157,tolanaro,-25.0319,46.9987,298.04,73,100,2.33,MG,04-02-2025
158,fale old settlement,-9.3852,-171.2468,301.59,70,27,6.01,TK,04-02-2025
159,ratnagiri,16.9833,73.3,295.7,76,83,3.13,IN,04-02-2025
160,viedma,-40.8135,-62.9967,294.82,27,0,8.18,AR,03-02-2025
161,ujae,8.9322,165.7642,300.08,70,91,9.4,MH,04-02-2025
162,thompson,55.7435,-97.8558,253.01,89,100,4.27,CA,03-02-2025
163,aasiaat,68.7098,-52.8699,253.02,96,100,1.97,GL,03-02-2025
164,ketchikan,55.3422,-131.6461,269.14,43,0,6.07,US,03-02-2025
165,ayr,55.4627,-4.6339,283.14,90,75,8.75,GB,03-02-2025
166,at taj,24.2049,23.2857,289.57,16,75,4.2,LY,03-02-2025
167,magadan,59.5667,150.8,244.39,77,4,2.28,RU,04-02-2025
168,troitsko-pechorsk,62.7084,56.1964,255.94,96,100,4.57,RU,04-02-2025
169,katima mulilo,-17.5,24.2667,294.96,84,5,2.12,NA,03-02-2025
170,kingston,17.997,-76.7936,303.68,62,20,3.09,JM,03-02-2025
171,oranjemund,-28.55,16.4333,290.83,92,0,3.9,NA,03-02-2025
172,xilin hot,43.9667,116.0333,249.68,93,14,2.99,CN,04-02-2025
173,antofagasta,-23.65,-70.4,296.75,79,5,2.89,CL,03-02-2025
174,vanimo,-2.6741,141.3028,298.19,95,100,2.89,PG,04-02-2025
175,matoury,4.8483,-52.3317,300.13,89,75,3.6,GF,03-02-2025
176,hamilton,39.1834,-84.5333,294.84,41,0,9.26,US,03-02-2025
177,regina,50.4501,-104.6178,248.17,68,91,5.81,CA,03-02-2025
178,vernon,50.2581,-119.2691,263.57,64,100,3.13,CA,03-02-2025
179,anloga,5.7947,0.8973,301.35,77,99,4.44,GH,03-02-2025
180,mansourah,31.0364,31.3807,284.51,91,16,2.68,EG,03-02-2025
181,paka,4.6374,103.4368,296.5,89,94,1.84,MY,04-02-2025
182,great falls,47.5002,-111.3008,253.81,70,100,4.12,US,03-02-2025
183,arkalyk,50.2486,66.9114,262.4,85,98,4.88,KZ,04-02-2025
184,jarwal,27.1667,81.55,286.97,43,41,3.02,IN,04-02-2025
185,st. john's,47.5649,-52.7093,269.8,88,100,2.57,CA,03-02-2025
186,north mankato,44.1733,-94.0339,269.81,91,100,7.2,US,03-02-2025
187,rio grande,-32.035,-52.0986,299.43,81,3,7.5,BR,03-02-2025
188,vilhena,-12.7406,-60.1458,296.86,93,100,1.95,BR,03-02-2025
189,melfort,52.8667,-104.6177,252.65,91,97,4.67,CA,03-02-2025
190,tete,-16.1564,33.5867,297.42,96,100,2.01,MZ,03-02-2025
191,benguela,-12.5763,13.4055,298.86,83,74,1.98,AO,03-02-2025
192,samarinda,-0.5,117.15,296.53,97,100,0.35,ID,04-02-2025
193,namibe,-15.1961,12.1522,296.29,80,99,2.2,AO,03-02-2025
194,'ain el turk,35.7438,-0.7693,286.53,67,75,5.14,DZ,03-02-2025
195,cabedelo,-6.9811,-34.8339,301.52,75,6,6.72,BR,03-02-2025
196,port mathurin,-19.6833,63.4167,300.37,84,58,4.98,MU,04-02-2025
197,runaway bay,18.4596,-77.3357,299.09,80,97,7.36,JM,03-02-2025
198,ilhabela,-23.7781,-45.3581,297.93,90,100,1.93,BR,03-02-2025
199,badger,64.8,-147.5333,257.8,84,75,0.0,US,03-02-2025
200,geraldton,-28.7667,114.6,291.38,88,0,4.63,AU,04-02-2025
201,ascencion de guarayos,-15.8963,-63.1881,302.27,64,96,3.28,BO,03-02-2025
202,lloydminster,53.2835,-110.0016,248.87,91,38,2.89,CA,03-02-2025
203,ventspils,57.3894,21.5606,273.11,74,100,5.14,LV,03-02-2025
204,belle fourche,44.6714,-103.8522,259.31,87,100,3.64,US,03-02-2025
205,labytnangi,66.6572,66.4183,245.96,98,95,2.82,RU,04-02-2025
206,tura,25.5198,90.2201,287.44,63,0,1.59,IN,04-02-2025
207,olonkinbyen,70.9221,-8.7187,274.58,78,87,19.84,SJ,03-02-2025
208,inhambane,-23.865,35.3833,299.71,77,22,4.7,MZ,03-02-2025
209,uruguaiana,-29.7547,-57.0883,313.11,29,20,2.06,BR,03-02-2025
210,tsiombe,-25.3,45.4833,298.43,70,92,5.48,MG,04-02-2025
211,bardai,11.65,7.2333,296.12,13,61,4.15,NG,03-02-2025
212,lucas,41.6501,-83.6666,284.26,80,0,3.6,US,03-02-2025
213,avarua,-21.2078,-159.775,302.18,79,59,4.63,CK,03-02-2025
214,howrah,22.5892,88.3103,293.15,73,1,2.06,IN,04-02-2025
215,east london,-33.0153,27.9116,295.96,87,55,5.55,ZA,03-02-2025
216,general conesa,-40.1,-64.4333,301.84,12,0,3.37,AR,03-02-2025
217,san fernando del valle de catamarca,-28.4696,-65.7852,313.02,27,18,2.24,AR,03-02-2025
218,sangju,36.4153,128.1606,264.92,70,87,4.06,KR,04-02-2025
219,alofi,-19.0595,-169.9187,301.09,83,75,3.09,NU,03-02-2025
220,bahar,34.9072,48.4414,274.35,47,2,1.81,IR,04-02-2025
221,yanykurgan,43.915,67.2481,270.77,70,100,2.04,KZ,04-02-2025
222,turbat,26.0023,63.044,289.2,24,0,1.91,PK,04-02-2025
223,mabaruma,8.2,-59.7833,297.62,91,57,2.23,GY,03-02-2025
224,ouesso,1.6136,16.0517,298.25,42,100,1.38,CG,03-02-2025
225,teglas,47.7167,21.6833,270.95,68,63,2.9,HU,03-02-2025
226,kapuskasing,49.4169,-82.4331,263.2,73,100,6.17,CA,03-02-2025
227,kawambwa,-9.7915,29.0791,290.61,98,100,0.56,ZM,03-02-2025
228,benghazi,32.1167,20.0667,289.8,69,0,5.64,LY,03-02-2025
229,peniche,39.3558,-9.3811,283.82,86,0,3.7,PT,03-02-2025
230,skelleftea,64.7507,20.9528,259.35,85,100,4.12,SE,03-02-2025
231,san antonio de pale,-1.4014,5.6325,300.63,77,57,1.67,GQ,03-02-2025
232,horta,38.5333,-28.6333,288.95,86,75,6.26,PT,03-02-2025
233,xai-xai,-25.0519,33.6442,299.14,86,15,2.76,MZ,03-02-2025
234,nar'yan-mar,67.6713,53.087,244.68,94,6,3.5,RU,04-02-2025
235,ghanzi,-21.5667,21.7833,297.98,36,47,3.64,BW,03-02-2025
236,alice springs,-23.7,133.8833,296.9,50,2,1.54,AU,04-02-2025
237,severo-yeniseyskiy,60.3725,93.0408,240.24,100,77,1.79,RU,04-02-2025
238,gadzhiyevo,69.2551,33.3362,257.18,99,97,1.63,RU,04-02-2025
239,arpacay,40.8487,43.3291,259.67,92,4,1.59,TR,04-02-2025
240,bani walid,31.7566,13.9942,285.21,42,0,1.38,LY,03-02-2025
241,kazanskoye,55.6448,69.235,270.99,98,100,1.55,RU,04-02-2025
242,molde,62.7375,7.1591,277.06,93,75,6.69,NO,03-02-2025
243,saint croix,17.7397,-64.7388,300.4,77,75,5.66,VI,03-02-2025
244,codrington,-38.2667,141.9667,295.8,68,85,4.17,AU,04-02-2025
245,sretensk,52.2453,117.7093,242.43,100,100,0.82,RU,04-02-2025
246,lejanias,3.5251,-74.0216,299.35,58,99,1.76,CO,03-02-2025
247,stephenville,32.2207,-98.2023,303.23,26,0,4.63,US,03-02-2025
248,ziway,7.9333,38.7167,291.83,50,55,6.98,ET,04-02-2025
249,altay,47.8667,88.1167,255.14,61,1,3.35,CN,04-02-2025
250,vanino,49.0869,140.2543,257.28,96,100,1.58,RU,04-02-2025
251,kamloops,50.6665,-120.3192,260.79,63,100,2.24,CA,03-02-2025
252,marka,1.7159,44.7717,297.14,83,60,9.51,SO,04-02-2025
253,maceio,-9.6658,-35.7353,301.84,74,40,6.17,BR,03-02-2025
254,daru,-9.0763,143.2092,298.35,92,100,6.2,PG,04-02-2025
255,camabatela,-8.1881,15.375,291.09,94,100,0.5,AO,03-02-2025
256,constantia,44.1833,28.65,272.53,68,2,5.39,RO,03-02-2025
257,lokhvytsya,50.3678,33.2602,272.31,75,96,2.54,UA,03-02-2025
258,chateau-renault,47.5919,0.9114,274.68,99,0,0.7,FR,03-02-2025
259,dunedin,-45.8742,170.5036,288.04,69,20,2.68,NZ,04-02-2025
260,ndele,8.4109,20.6473,298.79,19,60,2.16,CF,03-02-2025
261,tazovsky,67.4667,78.7,239.59,100,100,1.41,RU,04-02-2025
262,belmonte,-15.8631,-38.8828,299.83,77,0,3.81,BR,03-02-2025
263,malvan,16.0667,73.4667,296.62,77,96,4.67,IN,04-02-2025
264,lazaro cardenas,17.9583,-102.2,301.39,65,0,4.13,MX,03-02-2025
265,pontianak,-0.0333,109.3333,297.3,93,95,2.31,ID,04-02-2025
266,palmer,42.1584,-72.3287,278.23,71,100,4.12,US,03-02-2025
267,yemva,62.59,50.8594,262.22,95,100,2.54,RU,04-02-2025
268,peace river,56.2501,-117.286,250.0,92,74,2.62,CA,03-02-2025
269,elhovo,42.1667,26.5667,276.01,96,100,5.72,BG,03-02-2025
270,touros,-5.1989,-35.4608,300.61,75,100,5.8,BR,03-02-2025
271,howard springs,-12.497,131.047,295.36,100,100,1.86,AU,04-02-2025
272,camana,-16.6228,-72.7111,296.59,77,76,1.82,PE,03-02-2025
273,bahia blanca,-38.7196,-62.2724,296.92,43,0,7.25,AR,03-02-2025
274,alesund,62.4723,6.1549,281.23,71,75,5.14,NO,03-02-2025
275,jizzax,40.1158,67.8422,276.06,50,100,2.37,UZ,04-02-2025
276,betio village,1.358,172.9211,302.17,87,22,9.26,KI,04-02-2025
277,ceeldheer,3.8488,47.1806,296.21,81,38,8.88,SO,04-02-2025
278,lompoc,34.6391,-120.4579,291.77,61,0,6.17,US,03-02-2025
279,bure,10.7,37.0667,291.12,38,97,2.95,ET,04-02-2025
280,nishinoomote,30.7333,131.0,281.61,73,100,15.86,JP,04-02-2025
281,beawar,26.1,74.3167,290.83,35,87,1.39,IN,04-02-2025
282,hadibu,12.65,54.0333,294.67,66,60,6.09,YE,04-02-2025
283,chibougamau,49.9168,-74.3659,265.94,86,100,4.63,CA,03-02-2025
284,callao,-12.0667,-77.15,298.31,69,20,4.63,PE,03-02-2025
285,kapa'a,22.0752,-159.319,299.33,66,75,4.63,US,03-02-2025
286,siverek,37.755,39.3167,278.73,58,2,1.63,TR,04-02-2025
287,port alfred,-33.5906,26.891,294.92,89,0,0.89,ZA,03-02-2025
288,pasighat,28.0667,95.3333,287.81,59,0,1.88,IN,04-02-2025
289,moroni,-11.7022,43.2551,299.84,83,100,5.44,KM,04-02-2025
290,el abiodh sidi cheikh,32.893,0.5484,282.95,42,100,2.87,DZ,03-02-2025
291,tamanrasset,22.785,5.5228,282.1,14,0,0.0,DZ,03-02-2025
292,iskateley,67.6803,53.1512,244.71,94,7,3.47,RU,04-02-2025
293,hammerfest,70.6634,23.6821,262.4,62,0,6.69,NO,03-02-2025
294,lalin,42.7167,-8.1167,277.49,91,0,1.54,ES,03-02-2025
295,sao joao da barra,-21.6403,-41.0511,304.2,87,100,5.94,BR,03-02-2025
296,bel ombre,-4.6167,55.4167,300.21,79,21,3.8,SC,04-02-2025
297,baker city,44.7749,-117.8344,275.29,80,75,5.14,US,03-02-2025
298,yima,34.7381,111.8839,272.7,61,0,3.2,CN,04-02-2025
299,vilyuchinsk,52.9306,158.4028,255.3,62,1,4.11,RU,04-02-2025
300,manokwari,-0.8667,134.0833,298.41,78,100,3.3,ID,04-02-2025
301,la'ie,21.6477,-157.9253,298.77,63,89,1.79,US,03-02-2025
302,uturoa,-16.7333,-151.4333,300.7,75,19,4.98,PF,03-02-2025
303,inyati,-19.6756,28.8469,295.35,45,69,4.65,ZW,03-02-2025
304,toliara,-23.35,43.6667,298.36,69,90,7.16,MG,04-02-2025
305,happy valley-goose bay,53.3168,-60.3315,257.32,51,100,1.54,CA,03-02-2025
306,ingeniero jacobacci,-41.3427,-69.5448,293.97,22,6,10.81,AR,03-02-2025
307,tbeng meanchey,13.8167,104.9667,292.03,76,2,1.34,KH,04-02-2025
308,shalqar,47.8333,59.6,263.35,90,100,3.82,KZ,04-02-2025
309,la ronge,55.1001,-105.2842,253.11,80,100,5.13,CA,03-02-2025
310,isangel,-19.55,169.2667,300.41,84,7,9.58,VU,04-02-2025
311,achinsk,56.2694,90.4993,250.22,100,94,1.2,RU,04-02-2025
312,kudahuvadhoo,2.6708,72.8944,300.76,72,4,3.61,MV,04-02-2025
313,konarka,19.9,86.1167,296.35,89,2,0.53,IN,04-02-2025
314,murun-kuren,49.6342,100.1625,251.02,90,88,1.39,MN,04-02-2025
315,rongelap,11.1635,166.8941,299.78,67,76,9.08,MH,04-02-2025
316,ebon,4.582,168.6964,300.5,82,90,10.58,MH,04-02-2025
317,gutierrez zamora,20.45,-97.0833,297.02,78,87,2.37,MX,03-02-2025
318,luebo,-5.35,21.4167,294.25,96,100,0.6,CD,03-02-2025
319,micheweni,-4.9667,39.8333,299.87,77,43,6.87,TZ,04-02-2025
320,gaspe,48.8334,-64.4819,268.27,74,100,2.57,CA,03-02-2025
321,asau,46.4333,26.4,269.64,94,79,0.55,RO,03-02-2025
322,villa regina,-39.1,-67.0667,304.25,14,1,0.45,AR,03-02-2025
323,halvad,23.0167,71.1833,291.22,44,57,4.33,IN,04-02-2025
324,sumbe,-11.2061,13.8437,299.55,85,44,1.71,AO,03-02-2025
325,kavieng,-2.5744,150.7967,302.0,69,96,6.37,PG,04-02-2025
326,terrace,54.5163,-128.6035,262.82,50,2,2.31,CA,03-02-2025
327,eastham,41.8301,-69.9739,277.04,87,0,1.79,US,03-02-2025
328,hanceville,34.0607,-86.7675,297.13,53,0,4.06,US,03-02-2025
329,kavaratti,10.5669,72.642,300.39,75,53,4.72,IN,04-02-2025
330,bataipora,-22.2953,-53.2711,299.79,75,74,4.99,BR,03-02-2025
331,jember,-8.166,113.7032,295.69,96,92,1.46,ID,04-02-2025
332,oroqen zizhiqi,50.5667,123.7167,244.17,99,100,1.42,CN,04-02-2025
333,eten,-6.9081,-79.8642,299.29,61,0,8.75,PE,03-02-2025
334,itaituba,-4.2761,-55.9836,300.29,89,88,0.86,BR,03-02-2025
335,antalaha,-14.9003,50.2788,298.71,86,100,1.57,MG,04-02-2025
336,cururupu,-1.8283,-44.8683,296.19,100,99,1.13,BR,03-02-2025
337,koryazhma,61.3143,47.1691,265.73,96,100,2.23,RU,04-02-2025
338,khorixas,-20.3667,14.9667,295.02,66,97,3.28,NA,03-02-2025
339,remire-montjoly,4.9167,-52.2667,300.17,89,75,3.6,GF,03-02-2025
340,tyn nad vltavou,49.2234,14.4206,269.88,100,0,0.85,CZ,03-02-2025
341,krasnaya yaruga,50.8008,35.6583,271.83,75,100,1.67,RU,04-02-2025
342,isafjordur,66.0755,-23.124,271.89,80,100,18.46,IS,03-02-2025
343,iwon-up,40.3231,128.6553,260.67,61,99,4.3,KP,04-02-2025
344,vikulovo,56.8167,70.6107,269.02,98,100,1.39,RU,04-02-2025
345,turabah,21.2141,41.6331,288.24,25,85,4.73,SA,04-02-2025
346,north shore,-36.8,174.75,295.63,81,34,4.02,NZ,04-02-2025
347,tommot,58.9564,126.2925,246.96,96,100,2.22,RU,04-02-2025
348,queenstown,-31.8976,26.8753,290.75,89,44,1.93,ZA,03-02-2025
349,satka,55.0425,59.04,262.77,97,83,1.96,RU,04-02-2025
350,riachao das neves,-11.7461,-44.91,299.3,72,96,1.41,BR,03-02-2025
351,ta`u,-14.2336,-169.5144,300.9,75,16,3.26,AS,03-02-2025
352,tobelo,1.7284,128.0095,299.14,82,100,0.48,ID,04-02-2025
353,bereznik,62.8551,42.7072,257.43,97,99,1.2,RU,04-02-2025
354,arno,60.1167,18.6333,270.43,74,97,2.16,SE,03-02-2025
355,punta del este,-34.9667,-54.95,305.21,93,75,5.36,UY,03-02-2025
356,la passe,45.5549,-0.8967,279.34,81,0,2.58,FR,03-02-2025
357,suntar,62.1444,117.6319,252.23,95,100,7.33,RU,04-02-2025
358,vadso,70.0744,29.7487,261.24,85,40,2.06,NO,03-02-2025
359,pikeville,37.4793,-82.5188,295.6,41,0,5.14,US,03-02-2025
360,christchurch,-43.5333,172.6333,291.43,78,100,4.12,NZ,04-02-2025
361,araguaina,-7.1911,-48.2072,299.29,83,53,1.74,BR,03-02-2025
362,mossel bay,-34.1831,22.146,293.82,79,0,1.93,ZA,03-02-2025
363,coquimbo,-29.9533,-71.3436,295.0,62,0,6.17,CL,03-02-2025
364,weno,7.4515,151.8468,302.12,84,100,6.69,FM,04-02-2025
365,siracusa,37.0881,15.2792,283.88,82,7,0.89,IT,03-02-2025
366,tame,6.461,-71.73,306.46,30,47,4.37,CO,03-02-2025
367,sanctuary point,-35.1114,150.629,293.2,83,9,2.63,AU,04-02-2025
368,saint-philippe,-21.3585,55.7679,300.96,82,94,4.34,RE,04-02-2025
369,vila velha,-20.3297,-40.2925,301.12,69,20,8.23,BR,03-02-2025
370,pailon,-17.65,-62.75,309.88,30,15,2.79,BO,03-02-2025
371,quimili,-27.6333,-62.4167,316.22,13,0,4.3,AR,03-02-2025
372,lewiston orchards,46.3804,-116.9754,277.88,74,100,1.54,US,03-02-2025
373,conception bay south,47.4999,-52.9981,269.67,89,100,3.09,CA,03-02-2025
374,mount pearl,47.5166,-52.7813,269.34,89,100,3.09,CA,03-02-2025
375,mungwi,-10.1732,31.3694,291.21,96,100,1.32,ZM,03-02-2025
376,zhenjiang,32.2092,119.4342,272.48,86,0,1.41,CN,04-02-2025
377,tutoia,-2.7619,-42.2744,298.77,89,100,4.58,BR,03-02-2025
378,pauini,-7.7136,-66.9764,299.44,91,82,1.6,BR,03-02-2025
379,colonia,50.9333,6.95,274.8,80,0,3.09,DE,03-02-2025
380,pestovo,58.5938,35.8024,266.03,99,89,1.31,RU,04-02-2025
381,tamandare,-8.7597,-35.1047,300.05,77,5,4.6,BR,03-02-2025
382,north battleford,52.7834,-108.2847,248.2,64,20,4.12,CA,03-02-2025
383,barra de santo antonio,-9.4047,-35.5072,299.69,77,5,5.62,BR,03-02-2025
384,ravar,31.2656,56.8055,278.34,31,0,1.23,IR,04-02-2025
385,rayne,30.2349,-92.2685,297.62,86,71,4.69,US,03-02-2025
386,nuuk,64.1835,-51.7216,261.49,61,40,6.17,GL,03-02-2025
387,xucheng,20.35,110.1288,287.99,74,100,5.35,CN,04-02-2025
388,dalsingh sarai,25.6667,85.8333,286.44,52,0,1.49,IN,04-02-2025
389,usinsk,65.9939,57.5281,250.83,87,79,3.8,RU,04-02-2025
390,primero de mayo,-32.2552,-58.4228,311.94,11,0,3.51,AR,03-02-2025
391,freetown,8.484,-13.2299,299.99,78,40,1.54,SL,03-02-2025
392,aykhal,66.0,111.5,257.27,95,100,16.46,RU,04-02-2025
393,revda,56.801,59.9303,269.98,97,100,2.44,RU,04-02-2025
394,sinjar,36.3209,41.8754,281.04,52,0,0.57,IQ,04-02-2025
395,waitara,-38.925,174.25,291.48,72,0,0.95,NZ,04-02-2025
396,whitecourt,54.1502,-115.6855,247.73,70,40,0.0,CA,03-02-2025
397,kushiro,42.975,144.3747,271.68,100,100,5.66,JP,04-02-2025
398,grenaa,56.4158,10.8783,273.27,92,96,0.45,DK,03-02-2025
399,haiku-pauwela,20.9219,-156.3051,298.27,66,40,5.81,US,03-02-2025
400,madimba,-10.4,40.3333,299.3,87,65,4.58,TZ,04-02-2025
401,borovskoy,53.8,64.15,263.39,95,100,2.68,KZ,04-02-2025
402,hami,42.8,93.45,267.24,51,0,3.72,CN,04-02-2025
403,n'zeto,-7.2312,12.8666,299.99,82,100,1.79,AO,03-02-2025
404,shalya,57.2471,58.7298,267.27,96,100,3.15,RU,04-02-2025
405,shima,24.4478,117.8111,283.46,78,100,1.38,CN,04-02-2025
406,bikenibeu village,1.3673,173.1241,302.13,79,20,6.17,KI,04-02-2025
407,barentu,15.1139,37.5928,295.42,49,84,2.8,ER,04-02-2025
408,sarupathar,26.1984,93.8094,287.62,71,1,0.83,IN,04-02-2025
409,champerico,14.3,-91.9167,302.5,61,4,5.01,GT,03-02-2025
410,kone,-21.0595,164.8658,301.29,70,0,0.92,NC,04-02-2025
411,mana,5.6592,-53.7767,298.1,88,100,4.96,GF,03-02-2025
412,codo,-4.4553,-43.8856,300.62,71,100,1.05,BR,03-02-2025
413,fauske,67.2588,15.3918,258.96,85,35,6.54,NO,03-02-2025
414,coronel suarez,-37.4547,-61.9334,309.06,14,3,2.7,AR,03-02-2025
415,simanggang,1.2472,111.4528,297.05,100,100,0.3,MY,04-02-2025
416,taraz,42.9,71.3667,262.38,85,23,4.0,KZ,04-02-2025
417,nola,40.922,14.5329,285.39,88,100,2.65,IT,03-02-2025
418,cestos city,5.46,-9.5828,299.96,81,10,3.38,LR,03-02-2025
419,fuerte olimpo,-21.0415,-57.8738,311.63,22,83,2.17,PY,03-02-2025
420,kelkit,40.1298,39.4361,263.11,84,3,1.72,TR,04-02-2025
421,polyarnyy,69.1989,33.4478,257.38,99,93,1.56,RU,04-02-2025
422,kuanda,56.3161,116.0806,237.41,97,99,0.35,RU,04-02-2025
423,formosa do rio preto,-11.0483,-45.1931,299.53,75,48,1.27,BR,03-02-2025
424,dakhla,23.6848,-15.958,290.16,82,0,9.26,EH,03-02-2025
425,kem',64.9555,34.5793,260.56,91,97,3.01,RU,04-02-2025
426,erdenet,49.0333,104.0833,248.56,96,84,1.98,MN,04-02-2025
427,port augusta,-32.5,137.7667,301.66,48,5,1.4,AU,04-02-2025
428,laguna,38.421,-121.4238,289.38,71,0,5.66,US,03-02-2025
429,rio branco,-9.9747,-67.81,300.49,89,40,1.54,BR,03-02-2025
430,midvagur,62.0511,-7.1939,280.61,65,100,12.35,FO,03-02-2025
431,rathdrum,47.8137,-116.892,273.54,83,100,4.12,US,03-02-2025
432,basco,20.4487,121.9702,294.13,75,98,14.63,PH,04-02-2025
433,angaur state,6.906,134.13,301.04,80,98,6.36,PW,04-02-2025
434,hays,30.0502,-98.0336,300.1,62,28,5.76,US,03-02-2025
435,chabahar,25.2919,60.643,293.39,45,0,8.35,IR,04-02-2025
436,kharp,66.8014,65.8081,247.77,99,99,0.78,RU,04-02-2025
437,mbeya,-8.9,33.45,288.97,95,100,1.18,TZ,04-02-2025
438,wanganui,-39.9333,175.05,292.39,57,6,2.11,NZ,04-02-2025
439,sal rei,16.1833,-22.9167,293.86,65,96,10.38,CV,03-02-2025
440,pariaman,-0.619,100.12,299.18,79,98,1.94,ID,04-02-2025
441,papao,-17.75,-149.55,303.97,68,10,3.1,PF,03-02-2025
442,pisco,-13.7,-76.2167,300.18,61,0,5.66,PE,03-02-2025
443,mildura,-34.2,142.15,302.22,38,75,2.04,AU,04-02-2025
444,ndioum,16.5129,-14.6471,294.81,10,41,4.77,SN,03-02-2025
445,thinadhoo,0.5333,72.9333,300.47,69,36,1.45,MV,04-02-2025
446,puerto santa,-8.9906,-78.6456,297.42,73,24,3.96,PE,03-02-2025
447,peskovka,59.0448,52.3606,270.07,95,100,4.23,RU,04-02-2025
448,putla villa de guerrero,17.0333,-97.9333,303.18,42,50,1.95,MX,03-02-2025
449,bambanglipuro,-7.95,110.2833,297.62,88,100,2.58,ID,04-02-2025
450,botou,38.0667,116.5667,265.47,37,0,1.9,CN,04-02-2025
451,tukrah,32.5341,20.5791,288.74,77,44,4.32,LY,03-02-2025
452,tynda,55.1667,124.7167,231.37,98,62,1.43,RU,04-02-2025
453,lichuan,30.3,108.85,274.74,92,100,0.99,CN,04-02-2025
454,rantepao,-2.9701,119.8978,291.23,88,100,1.48,ID,04-02-2025
455,alotau,-10.3069,150.4462,299.65,88,100,2.59,PG,04-02-2025
456,peterhead,57.5058,-1.7981,281.26,87,100,11.73,GB,03-02-2025
457,kabwe,-14.4469,28.4464,292.17,99,100,1.79,ZM,03-02-2025
458,tanumah,27.1,44.1333,285.85,27,26,3.22,SA,04-02-2025
459,waegwan,35.9917,128.3973,266.2,63,100,5.62,KR,04-02-2025
460,west plains,36.7281,-91.8524,297.61,53,0,4.92,US,03-02-2025
461,kenora,49.8167,-94.4337,254.69,71,75,6.17,CA,03-02-2025
462,arar,30.9753,41.0381,285.16,28,0,2.06,SA,04-02-2025
463,andovoranto,-18.95,49.1,296.89,93,100,8.2,MG,04-02-2025
464,golpayegan,33.4537,50.2884,274.04,48,89,2.33,IR,04-02-2025
465,lhokseumawe,5.1801,97.1507,297.64,83,94,1.39,ID,04-02-2025
466,guerrero negro,27.9769,-114.0611,298.55,28,47,2.13,MX,03-02-2025
467,tobias barreto,-11.1839,-37.9983,300.43,64,67,6.78,BR,03-02-2025
468,barcelos,41.5388,-8.6151,280.73,84,0,1.93,PT,03-02-2025
469,kaspiyskiy,45.3929,47.3707,275.18,92,99,3.89,RU,04-02-2025
470,sosnovo-ozerskoye,52.5249,111.5418,238.14,100,33,1.52,RU,04-02-2025
471,carutapera,-1.195,-46.02,296.23,96,100,3.6,BR,03-02-2025
472,vilanova de arousa,42.5667,-8.8333,280.51,88,1,1.0,ES,03-02-2025
473,ksar el boukhari,35.8889,2.7491,280.7,72,100,0.91,DZ,03-02-2025
474,lorengau,-2.0226,147.2712,301.2,74,100,2.43,PG,04-02-2025
475,anna,51.4842,40.4299,271.99,69,97,1.83,RU,04-02-2025
476,dalandzadgad,43.5708,104.425,258.16,68,62,7.4,MN,04-02-2025
477,sumperk,49.9653,16.9706,270.79,83,9,0.7,CZ,03-02-2025
478,larkird,35.4894,66.6641,267.24,89,100,2.75,AF,04-02-2025
479,sedlcany,49.6606,14.4266,268.21,86,0,1.15,CZ,03-02-2025
480,coahuayana de hidalgo,18.7,-103.6583,305.35,45,0,3.45,MX,03-02-2025
481,fada,7.25,4.0667,299.93,77,57,1.51,NG,03-02-2025
482,haparanda,65.8355,24.1368,250.18,97,12,3.24,SE,03-02-2025
483,al jahra',29.3375,47.6581,288.01,26,97,1.42,KW,04-02-2025
484,aktau,43.65,51.2,278.47,79,99,5.02,KZ,04-02-2025
485,khanty-mansiysk,61.0042,69.0019,258.21,72,40,1.0,RU,04-02-2025
486,belogorsk,50.9158,128.4611,252.36,97,100,4.41,RU,04-02-2025
487,kittila,67.6647,24.8936,243.23,76,0,1.03,FI,03-02-2025
488,thunder bay,48.4001,-89.3168,263.14,52,100,5.66,CA,03-02-2025
489,medicine hat,50.0501,-110.6683,251.6,70,100,2.48,CA,03-02-2025
490,karibib,-21.9333,15.8333,295.67,71,92,5.82,NA,03-02-2025
491,ola,59.5833,151.2833,243.39,86,14,2.98,RU,04-02-2025
492,walvis bay,-22.9575,14.5053,292.48,77,47,3.39,NA,03-02-2025
493,upper grand lagoon,30.1633,-85.7408,294.33,75,0,4.12,US,03-02-2025
494,darwin,-12.4611,130.8418,295.14,94,75,7.72,AU,04-02-2025
495,arteche,12.2645,125.4048,298.8,71,100,3.4,PH,04-02-2025
496,marcali,46.585,17.412,270.08,65,62,1.1,HU,03-02-2025
497,hailey,43.5196,-114.3153,276.93,75,40,2.57,US,03-02-2025
498,sour el ghozlane,36.1477,3.6912,277.32,87,57,2.08,DZ,03-02-2025
499,braidwood,41.265,-88.2123,285.84,73,100,3.34,US,03-02-2025
500,aljezur,37.3191,-8.8033,282.91,75,28,3.48,PT,03-02-2025
501,tuy hoa,13.0833,109.3,294.98,89,100,4.57,VN,04-02-2025
502,long jetty,-33.3667,151.4833,296.57,89,99,2.92,AU,04-02-2025
503,jinjing,24.575,118.5972,284.02,68,99,10.94,CN,04-02-2025
504,barakani,-12.1356,44.4317,300.15,79,100,5.51,KM,04-02-2025
505,lindi,-10.0,39.7167,297.49,96,90,1.79,TZ,04-02-2025
506,astoria,46.1879,-123.8313,276.09,96,100,3.6,US,03-02-2025
507,khovd,48.0056,91.6419,253.52,74,99,2.91,MN,04-02-2025
508,al hilaliyya,14.9398,33.234,298.96,32,1,3.9,SD,03-02-2025
509,kemise,10.7167,39.8667,289.96,72,41,1.21,ET,04-02-2025
510,bopolu,7.0667,-10.4875,297.61,76,18,1.49,LR,03-02-2025
511,auki,-8.7676,160.7034,300.21,82,98,1.73,SB,04-02-2025
512,harper,4.375,-7.7169,299.79,82,90,3.95,LR,03-02-2025
513,bonthe,7.5264,-12.505,298.67,80,12,3.59,SL,03-02-2025
514,ulladulla,-35.35,150.4667,294.2,76,2,3.15,AU,04-02-2025
515,nuku'alofa,-21.1333,-175.2,299.57,76,100,3.28,TO,04-02-2025
516,machico,32.7,-16.7667,289.66,75,20,4.63,PT,03-02-2025
517,tateyama,34.9833,139.8667,282.65,44,72,11.3,JP,04-02-2025
518,carnarvon,-24.8667,113.6333,301.0,55,33,6.98,AU,04-02-2025
519,tromso,69.6496,18.957,266.16,53,0,11.32,NO,03-02-2025
520,pangody,65.85,74.4859,248.33,98,31,3.64,RU,04-02-2025
521,ciudad lazaro cardenas,17.9583,-102.2,301.39,65,0,4.13,MX,03-02-2025
522,cabinda,-5.55,12.2,300.18,81,94,2.68,AO,03-02-2025
523,baganga,7.5739,126.56,297.98,85,99,3.33,PH,04-02-2025
524,quellon,-43.1167,-73.6167,283.76,95,100,0.85,CL,03-02-2025
525,okha,53.5739,142.9478,249.39,97,88,3.58,RU,04-02-2025
526,kingman,35.1894,-114.053,296.29,14,0,7.72,US,03-02-2025
527,kvissleby,62.2936,17.375,265.06,97,99,2.09,SE,03-02-2025
528,pangoa,-12.1167,-73.0,298.73,86,100,0.87,PE,03-02-2025
529,yantarnyy,54.8717,19.9381,274.66,72,84,4.39,RU,03-02-2025
530,yulinshi,38.2906,109.7494,266.6,41,10,3.77,CN,04-02-2025
531,santa marta,11.2408,-74.199,307.18,57,20,8.05,CO,03-02-2025
532,soe,-9.8607,124.284,292.01,93,100,1.56,ID,04-02-2025
533,shizunai-furukawacho,42.3339,142.3669,277.5,74,99,4.78,JP,04-02-2025
534,bandon,51.7469,-8.7425,283.92,90,100,10.57,IE,03-02-2025
535,saint ann's bay,18.4358,-77.201,299.04,82,98,7.59,JM,03-02-2025
536,altamira,-3.2033,-52.2064,302.2,79,40,0.0,BR,03-02-2025
537,karsiyang,26.8825,88.2773,283.51,70,0,2.67,IN,04-02-2025
538,paragominas,-2.9667,-47.4833,296.81,94,100,1.43,BR,03-02-2025
539,kani keli,-12.9536,45.1033,299.74,77,100,4.28,YT,04-02-2025
540,zaoyang,32.1272,112.7542,275.51,65,0,3.18,CN,04-02-2025
541,kalevala,65.2,31.1667,256.1,95,93,3.97,RU,04-02-2025
542,akureyri,65.6835,-18.0878,275.11,64,100,7.2,IS,03-02-2025
543,sabancuy,18.9667,-91.1833,298.63,78,100,4.73,MX,03-02-2025
544,juan griego,11.0817,-63.9655,300.14,73,60,7.41,VE,03-02-2025
545,gilgit,35.9221,74.3087,267.51,34,0,1.36,PK,04-02-2025
546,guixi,28.2886,117.2133,277.32,89,2,0.68,CN,04-02-2025
547,harstad,68.799,16.5293,268.24,78,2,6.44,NO,03-02-2025
548,sinabang,2.4803,96.3801,299.19,80,100,0.74,ID,04-02-2025
549,luis correia,-2.8792,-41.6669,301.15,89,75,4.63,BR,03-02-2025
550,mitsamiouli,-11.3847,43.2844,300.65,79,99,5.55,KM,04-02-2025
551,piatykhatky,48.4133,33.7106,271.91,88,51,2.69,UA,03-02-2025
552,usogorsk,63.4106,48.6872,256.79,96,100,3.15,RU,04-02-2025
553,zouerate,22.7187,-12.4521,289.84,39,0,2.54,MR,03-02-2025
554,margate,51.3813,1.3862,279.65,87,81,0.45,GB,03-02-2025
555,cruzeiro do sul,-29.5128,-51.9853,309.0,50,82,2.4,BR,03-02-2025
556,roma,43.2128,-75.4557,277.42,94,100,3.6,US,03-02-2025
557,shaping,22.7545,112.9565,282.94,60,100,5.59,CN,04-02-2025
558,black river,18.0264,-77.8487,300.59,69,79,1.92,JM,03-02-2025
559,sarakhs,36.5449,61.1577,276.83,49,15,1.0,IR,04-02-2025
560,basse-terre,16.1667,-61.6667,297.73,78,75,5.66,GP,03-02-2025
