City_ID,City,Lat,Lng,Max Temp,Humidity,Cloudiness,Wind Speed,Country,Date
0,ebon,4.582,168.6964,300.5,81,72,10.74,MH,04-02-2025
1,bethel,41.3712,-73.414,278.83,75,75,4.12,US,03-02-2025
2,stanley,54.868,-1.6985,281.16,77,40,7.72,GB,03-02-2025
3,whitehorse,60.7161,-135.0538,256.58,85,75,1.54,CA,03-02-2025
4,banamba,13.55,-7.45,295.21,15,93,3.38,ML,03-02-2025
5,la passe,45.5549,-0.8967,280.19,81,0,2.96,FR,03-02-2025
6,west island,-12.1568,96.8225,300.14,94,20,5.14,CC,04-02-2025
7,edinburgh of the seven seas,-37.0676,-12.3116,288.11,72,100,5.54,SH,03-02-2025
8,ghat,24.9647,10.1728,289.4,27,14,2.73,LY,03-02-2025
9,waitangi,-43.9535,-176.5597,288.61,91,26,5.81,NZ,04-02-2025
10,akureyri,65.6835,-18.0878,277.11,70,75,12.35,IS,03-02-2025
11,port-aux-francais,-49.35,70.2167,277.08,69,100,2.0,TF,03-02-2025
12,uturoa,-16.7333,-151.4333,300.61,75,18,5.18,PF,03-02-2025
13,kapa'a,22.0752,-159.319,295.64,78,20,3.09,US,03-02-2025
14,hammerfest,70.6634,23.6821,263.4,52,0,8.75,NO,03-02-2025
15,hasaki,35.7333,140.8333,280.74,70,100,3.42,JP,04-02-2025
16,belmonte,-15.8631,-38.8828,301.88,63,0,4.17,BR,03-02-2025
17,adamstown,-25.066,-130.1015,297.73,74,92,6.61,PN,03-02-2025
18,selfoss,63.9331,-20.9971,275.4,84,63,13.55,IS,03-02-2025
19,khandyga,62.6667,135.6,237.25,97,100,2.14,RU,04-02-2025
20,shiqian,27.5225,108.2281,277.4,82,12,0.81,CN,04-02-2025
21,canutama,-6.5339,-64.3831,301.37,68,100,1.53,BR,03-02-2025
22,salalah,17.0151,54.0924,296.2,16,0,4.63,OM,03-02-2025
23,iqaluit,63.7506,-68.5145,244.09,61,20,2.57,CA,03-02-2025
24,punta arenas,-53.15,-70.9167,284.21,46,40,12.86,CL,03-02-2025
25,atafu village,-8.5421,-172.5159,301.87,66,100,6.21,TK,04-02-2025
26,genhe,50.7833,121.5167,246.3,98,100,1.17,CN,04-02-2025
27,fortuna,40.5982,-124.1573,279.46,98,100,2.57,US,03-02-2025
28,port lincoln,-34.7333,135.8667,293.26,81,0,6.59,AU,04-02-2025
29,isafjordur,66.0755,-23.124,270.73,94,100,20.38,IS,03-02-2025
30,longyearbyen,78.2186,15.6401,273.06,64,20,1.03,SJ,03-02-2025
31,kuanda,56.3161,116.0806,237.67,97,98,0.35,RU,04-02-2025
32,idri,27.5,13.2667,289.41,29,0,3.44,LY,03-02-2025
33,inari,68.906,27.0288,247.27,100,83,0.91,FI,03-02-2025
34,porto novo,6.4965,2.6036,301.12,76,3,4.43,BJ,03-02-2025
35,invercargill,-46.4,168.35,285.94,79,27,0.39,NZ,04-02-2025
36,novo brdo,45.5864,16.0229,277.69,64,0,2.06,HR,03-02-2025
37,georgetown,5.4112,100.3354,299.11,73,20,0.51,MY,04-02-2025
38,ribeira grande,38.5167,-28.7,289.37,77,75,6.71,PT,03-02-2025
39,kailua-kona,19.6406,-155.9956,295.7,77,0,2.57,US,03-02-2025
40,peace river,56.2501,-117.286,240.32,75,0,2.57,CA,03-02-2025
41,tofol,5.3248,163.0078,301.01,80,10,11.3,FM,04-02-2025
42,vilyuysk,63.7553,121.6247,251.62,96,100,5.65,RU,04-02-2025
43,qaqortoq,60.7167,-46.0333,254.35,86,10,2.26,GL,03-02-2025
44,wailua homesteads,22.0669,-159.378,294.89,78,20,3.09,US,03-02-2025
45,albany,42.6001,-73.9662,275.88,78,100,1.34,US,03-02-2025
46,iskateley,67.6803,53.1512,244.95,93,9,3.83,RU,03-02-2025
47,port elizabeth,-33.918,25.5701,294.99,88,0,1.79,ZA,03-02-2025
48,caconda,-13.7333,15.0667,289.84,97,100,1.42,AO,03-02-2025
49,yellowknife,62.456,-114.3525,245.68,76,40,3.09,CA,03-02-2025
50,cabo san lucas,22.8909,-109.9124,296.8,34,37,2.68,MX,03-02-2025
51,abadan,30.3392,48.3043,285.12,47,0,1.03,IR,03-02-2025
52,novo aripuana,-5.1206,-60.3797,301.28,81,99,0.88,BR,03-02-2025
53,floro,61.5996,5.0328,278.13,87,75,7.72,NO,03-02-2025
54,nelidovo,56.2211,32.7774,269.56,85,74,2.25,RU,03-02-2025
55,greenville,35.6127,-77.3663,289.9,72,0,1.54,US,03-02-2025
56,bredasdorp,-34.5322,20.0403,292.45,68,0,1.57,ZA,03-02-2025
57,thompson,55.7435,-97.8558,250.24,70,75,3.09,CA,03-02-2025
58,puerto ayora,-0.7393,-90.3518,300.12,91,77,2.68,EC,03-02-2025
59,st. john's,47.5649,-52.7093,270.53,81,100,0.89,CA,03-02-2025
60,chinde,26.8212,87.7095,287.62,64,0,3.1,NP,04-02-2025
61,grytviken,-54.2811,-36.5092,277.98,94,100,1.13,GS,03-02-2025
62,hermanus,-34.4187,19.2345,292.48,76,0,1.42,ZA,03-02-2025
63,antigonish,45.6169,-61.9986,270.83,83,100,3.13,CA,03-02-2025
64,enewetak,11.3474,162.3373,300.04,64,100,10.22,MH,04-02-2025
65,ulladulla,-35.35,150.4667,291.44,92,3,3.24,AU,04-02-2025
66,olonkinbyen,70.9221,-8.7187,275.19,88,100,19.02,SJ,03-02-2025
67,new norfolk,-42.7826,147.0587,294.1,52,41,1.29,AU,04-02-2025
68,alice springs,-23.7,133.8833,298.9,47,0,2.57,AU,04-02-2025
69,inhambane,-23.865,35.3833,299.68,79,4,4.7,MZ,03-02-2025
70,santa sylvina,-27.8326,-61.1375,314.81,15,0,1.5,AR,03-02-2025
71,koryazhma,61.3143,47.1691,264.66,96,100,1.94,RU,03-02-2025
72,hawaiian paradise park,19.5933,-154.9731,295.31,80,2,0.45,US,03-02-2025
73,ushuaia,-54.8,-68.3,279.96,76,40,12.35,AR,03-02-2025
74,rio gallegos,-51.6226,-69.2181,284.18,58,75,11.32,AR,03-02-2025
75,carnarvon,-24.8667,113.6333,301.41,57,55,8.6,AU,04-02-2025
76,puerto natales,-51.7236,-72.4875,282.4,66,75,9.26,CL,03-02-2025
77,ust-nera,64.5667,143.2,231.32,99,78,1.88,RU,04-02-2025
78,bilibino,68.0546,166.4372,240.2,99,100,1.09,RU,04-02-2025
79,mahibadhoo,3.7833,72.9667,301.0,72,0,5.32,MV,03-02-2025
80,margaret river,-33.95,115.0667,287.7,85,0,5.76,AU,04-02-2025
81,rio grande,-32.035,-52.0986,301.16,73,0,7.55,BR,03-02-2025
82,chilecito,-29.1619,-67.4974,306.52,31,1,3.47,AR,03-02-2025
83,midvagur,62.0511,-7.1939,280.61,70,100,12.35,FO,03-02-2025
84,saipan,15.1355,145.701,298.54,88,40,4.12,MP,04-02-2025
85,pisco,-13.7,-76.2167,301.18,61,0,4.12,PE,03-02-2025
86,staryye ozinki,51.1786,49.6769,272.1,98,100,3.37,RU,03-02-2025
87,maple ridge,49.2194,-122.6019,269.99,85,100,3.6,CA,03-02-2025
88,videira,-27.0083,-51.1517,299.06,68,100,0.47,BR,03-02-2025
89,ilulissat,69.2167,-51.1,248.39,99,100,2.07,GL,03-02-2025
90,brookings,44.3114,-96.7984,264.92,76,100,7.72,US,03-02-2025
91,tadine,-21.55,167.8833,299.1,92,87,10.33,NC,04-02-2025
92,kupang,-10.1667,123.5833,300.47,100,75,1.54,ID,04-02-2025
93,sisimiut,66.9395,-53.6735,256.41,96,100,2.7,GL,03-02-2025
94,crane,31.3974,-102.3501,297.34,17,0,3.8,US,03-02-2025
95,saacow,1.6279,42.4407,299.21,57,11,7.64,SO,03-02-2025
96,nanga eboko,4.6833,12.3667,299.04,23,47,1.27,CM,03-02-2025
97,tacna,-18.0056,-70.2483,299.26,44,0,5.14,PE,03-02-2025
98,itoman,26.1247,127.6694,287.16,62,75,12.86,JP,04-02-2025
99,tucuma,-0.1833,-50.05,300.06,86,100,2.97,BR,03-02-2025
100,geraldton,-28.7667,114.6,293.38,83,0,4.12,AU,04-02-2025
101,tomohon,1.3346,124.8392,291.44,92,100,0.23,ID,04-02-2025
102,xiazhuang,34.9161,118.6389,269.49,35,2,2.03,CN,04-02-2025
103,tazovsky,67.4667,78.7,239.62,100,100,1.67,RU,03-02-2025
104,balakhta,55.38,91.6,255.86,99,95,0.63,RU,04-02-2025
105,nemuro,43.3236,145.575,272.51,87,100,13.17,JP,04-02-2025
106,bryan,30.6744,-96.37,298.05,71,75,6.17,US,03-02-2025
107,broken hill,-31.95,141.4333,300.27,44,17,3.8,AU,04-02-2025
108,namibe,-15.1961,12.1522,296.41,81,100,4.11,AO,03-02-2025
109,tura,25.5198,90.2201,287.86,63,0,1.49,IN,04-02-2025
110,blackmans bay,-43.0167,147.3167,290.22,88,25,2.83,AU,04-02-2025
111,keflavik,64.0049,-22.5624,275.39,75,75,13.38,IS,03-02-2025
112,papatowai,-46.5619,169.4708,285.52,71,98,3.84,NZ,04-02-2025
113,cove,7.221,2.3402,304.03,53,35,4.41,BJ,03-02-2025
114,paso de los libres,-29.7131,-57.0899,312.17,29,40,2.57,AR,03-02-2025
115,jaguarari,-10.2639,-40.1958,301.22,49,0,3.6,BR,03-02-2025
116,east ballina,-28.8667,153.5833,295.08,90,99,0.42,AU,04-02-2025
117,ilhabela,-23.7781,-45.3581,298.75,88,100,1.48,BR,03-02-2025
118,tres arroyos,-38.3739,-60.2798,302.74,39,38,8.36,AR,03-02-2025
119,darwin,-12.4611,130.8418,303.14,84,100,5.14,AU,04-02-2025
120,antofagasta,-23.65,-70.4,296.75,73,3,3.27,CL,03-02-2025
121,richards bay,-28.783,32.0377,297.36,90,100,2.2,ZA,03-02-2025
122,johvi,59.3592,27.4211,267.66,86,100,4.11,EE,03-02-2025
123,cantaura,9.3057,-64.3584,305.78,39,100,6.56,VE,03-02-2025
124,pacific grove,36.6177,-121.9166,289.07,84,100,8.05,US,03-02-2025
125,tolanaro,-25.0319,46.9987,300.19,69,20,6.17,MG,03-02-2025
126,lecheng,25.1238,113.3254,279.67,94,76,1.55,CN,04-02-2025
127,vila franca do campo,37.7167,-25.4333,291.42,99,100,4.81,PT,03-02-2025
128,tual,-5.6667,132.75,300.89,80,100,9.89,ID,04-02-2025
129,acapulco de juarez,16.8634,-99.8901,302.05,74,0,3.09,MX,03-02-2025
130,gebeit,21.0667,36.3167,291.62,42,68,3.46,SD,03-02-2025
131,tyumentsevo,53.3224,81.498,263.12,97,97,2.1,RU,04-02-2025
132,virginia,37.5481,-77.4467,293.16,47,75,3.6,US,03-02-2025
133,turbat,26.0023,63.044,290.09,28,0,1.7,PK,03-02-2025
134,madang,-5.2246,145.7966,297.99,91,100,1.8,PG,04-02-2025
135,klyuchi,52.2667,79.1667,269.95,95,100,1.51,RU,04-02-2025
136,ratnagiri,16.9833,73.3,296.39,75,99,3.55,IN,04-02-2025
137,cestos city,5.46,-9.5828,300.34,77,5,3.72,LR,03-02-2025
138,mananjary,-21.2167,48.3333,297.57,81,99,5.37,MG,03-02-2025
139,chonchi,-42.6128,-73.8092,287.66,71,100,1.06,CL,03-02-2025
140,east london,-33.0153,27.9116,296.47,81,70,6.33,ZA,03-02-2025
141,praia da vitoria,38.7333,-27.0667,287.29,100,75,6.08,PT,03-02-2025
142,ugoofaaru,5.6667,73.0,300.89,71,14,3.23,MV,03-02-2025
143,hamilton,39.1834,-84.5333,292.84,54,0,7.2,US,03-02-2025
144,lejanias,3.5251,-74.0216,301.41,49,98,3.25,CO,03-02-2025
145,allapalli,19.4167,80.0667,296.27,49,64,1.31,IN,04-02-2025
146,pendleton,45.6721,-118.7886,277.57,83,75,0.0,US,03-02-2025
147,san pedro pochutla,15.7333,-96.4667,305.77,42,9,4.0,MX,03-02-2025
148,udachny,66.4167,112.4,258.26,93,100,14.14,RU,04-02-2025
149,mejit,10.2753,170.8646,299.58,74,84,9.59,MH,04-02-2025
150,tiksi,71.6872,128.8694,246.99,99,100,3.01,RU,04-02-2025
151,vorgashor,67.5833,63.95,244.76,96,10,2.61,RU,03-02-2025
152,barpathar,26.3,93.8667,288.33,67,0,0.65,IN,04-02-2025
153,port mathurin,-19.6833,63.4167,300.29,85,36,4.92,MU,03-02-2025
154,tazacorte,28.629,-17.9293,291.69,92,100,6.17,ES,03-02-2025
155,danilovka,50.3557,44.1168,272.61,98,100,1.61,RU,03-02-2025
156,kiffa,16.6166,-11.4045,295.27,9,1,4.11,MR,03-02-2025
157,touros,-5.1989,-35.4608,301.55,67,98,6.7,BR,03-02-2025
158,badger,64.8,-147.5333,261.08,78,75,2.06,US,03-02-2025
159,dauphin,51.1494,-100.0502,250.23,70,0,8.23,CA,03-02-2025
160,sitka,57.0531,-135.33,271.09,26,0,0.0,US,03-02-2025
161,flin flon,54.7682,-101.865,251.06,71,75,5.66,CA,03-02-2025
162,kodiak,57.79,-152.4072,272.88,86,0,5.14,US,03-02-2025
163,fort bragg,35.139,-79.006,292.41,58,0,5.14,US,03-02-2025
164,jamestown,42.097,-79.2353,280.68,87,75,2.57,US,03-02-2025
165,anadyr,64.75,177.4833,273.43,86,20,10.0,RU,04-02-2025
166,magong,23.5654,119.5863,287.1,78,100,17.47,TW,04-02-2025
167,langsa,4.4683,97.9683,295.17,89,97,0.62,ID,04-02-2025
168,kingston,17.997,-76.7936,304.35,58,20,4.12,JM,03-02-2025
169,lata,40.1629,-8.3327,279.62,80,0,1.15,PT,03-02-2025
170,crucecita,-28.95,-58.9833,314.99,14,0,3.21,AR,03-02-2025
171,lawas,13.764,121.0566,296.26,93,93,2.97,PH,04-02-2025
172,mount isa,-20.7333,139.5,297.02,100,100,2.57,AU,04-02-2025
173,taltal,-25.4,-70.4833,294.98,73,35,3.42,CL,03-02-2025
174,tsiombe,-25.3,45.4833,298.4,68,84,5.94,MG,03-02-2025
175,constantia,44.1833,28.65,272.53,66,3,5.97,RO,03-02-2025
176,sorong,-0.8833,131.25,298.63,87,100,6.38,ID,04-02-2025
177,sao jose dos pinhais,-25.5347,-49.2064,295.02,94,100,3.09,BR,03-02-2025
178,choibalsan,48.0667,114.5,254.14,98,100,3.38,MN,04-02-2025
179,praya,14.9215,-23.5087,297.45,38,75,10.8,CV,03-02-2025
180,codrington,-38.2667,141.9667,298.01,57,100,4.6,AU,04-02-2025
181,san antonio de pale,-1.4014,5.6325,300.74,75,74,0.91,GQ,03-02-2025
182,nar'yan-mar,67.6713,53.087,244.93,93,8,3.87,RU,03-02-2025
183,sinop,41.7711,34.8709,278.11,92,97,1.13,TR,03-02-2025
184,achinsk,56.2694,90.4993,250.18,100,91,1.12,RU,04-02-2025
185,micheweni,-4.9667,39.8333,299.87,78,30,7.22,TZ,03-02-2025
186,dryden,49.7833,-92.7503,254.31,71,75,6.17,CA,03-02-2025
187,galle,6.0367,80.217,298.74,78,87,1.29,LK,04-02-2025
188,astrakhan,46.3497,48.0408,275.08,87,40,4.0,RU,03-02-2025
189,chasong,41.4608,126.6414,250.35,98,51,0.96,KP,04-02-2025
190,petropavlovsk-kamchatsky,53.0452,158.6483,255.48,51,0,2.0,RU,04-02-2025
191,bumba,2.1833,22.4667,302.76,32,100,0.17,CD,03-02-2025
192,betio village,1.358,172.9211,300.17,88,6,7.92,KI,04-02-2025
193,sao joao da barra,-21.6403,-41.0511,307.2,84,100,6.04,BR,03-02-2025
194,dudinka,69.4058,86.1778,251.21,87,100,3.74,RU,04-02-2025
195,howard springs,-12.497,131.047,303.1,95,100,6.56,AU,04-02-2025
196,antsiranana,-12.2787,49.2917,298.57,87,100,4.68,MG,03-02-2025
197,ad dilam,23.9915,47.1627,286.41,20,8,1.51,SA,03-02-2025
198,salinopolis,-0.6136,-47.3561,298.22,92,100,6.19,BR,03-02-2025
199,kittila,67.6647,24.8936,245.23,83,0,0.51,FI,03-02-2025
200,georgiyevka,43.0369,74.7114,258.17,85,10,2.0,KZ,03-02-2025
201,mammoth lakes,37.6485,-118.9721,284.55,14,0,11.32,US,03-02-2025
202,vilyuchinsk,52.9306,158.4028,256.3,68,1,4.0,RU,04-02-2025
203,lamu,-2.2717,40.902,298.18,80,100,7.39,KE,03-02-2025
204,talnakh,69.4865,88.3972,251.45,98,100,2.23,RU,04-02-2025
205,likiep,9.8251,169.3107,299.7,71,100,9.29,MH,04-02-2025
206,san jose del guaviare,2.5729,-72.6459,307.89,32,26,3.69,CO,03-02-2025
207,weno,7.4515,151.8468,301.12,83,100,4.12,FM,04-02-2025
208,holualoa,19.6228,-155.9522,293.63,77,0,0.45,US,03-02-2025
209,labrador city,52.9463,-66.9114,258.1,72,75,4.63,CA,03-02-2025
210,la'ie,21.6477,-157.9253,296.54,68,96,1.34,US,03-02-2025
211,beau vallon,-20.4189,57.6953,300.28,94,40,4.12,MU,03-02-2025
212,alotau,-10.3069,150.4462,299.11,90,100,2.66,PG,04-02-2025
213,rongelap,11.1635,166.8941,299.84,66,100,9.26,MH,04-02-2025
214,san rafael,-34.6177,-68.3301,301.84,22,50,3.74,AR,03-02-2025
215,cooper's town,26.8667,-77.5167,296.14,78,10,4.15,BS,03-02-2025
216,polyarnyy,69.1989,33.4478,255.28,100,88,1.53,RU,03-02-2025
217,jati,24.3539,68.2671,291.08,62,0,3.49,PK,03-02-2025
218,tindouf,27.6711,-8.1474,294.4,12,0,2.57,DZ,03-02-2025
219,junin,-34.5838,-60.9433,315.64,9,30,5.03,AR,03-02-2025
220,xiaoweizhai,26.1903,107.5125,275.54,85,8,1.85,CN,04-02-2025
221,horta,38.5333,-28.6333,288.95,87,75,6.71,PT,03-02-2025
222,aykhal,66.0,111.5,256.54,95,100,15.02,RU,04-02-2025
223,swakopmund,-22.6833,14.5333,291.15,85,72,3.22,NA,03-02-2025
224,kingscliff,-28.2667,153.5667,295.34,100,75,2.57,AU,04-02-2025
225,chishmy,54.5765,55.3764,271.42,92,100,5.2,RU,03-02-2025
226,saudarkrokur,65.7461,-19.6394,272.04,81,100,18.12,IS,03-02-2025
227,thurso,58.5927,-3.5259,283.29,74,100,8.88,GB,03-02-2025
228,al jubayl,27.0112,49.6583,289.74,44,6,2.44,SA,03-02-2025
229,avarua,-21.2078,-159.775,302.18,74,100,3.09,CK,03-02-2025
230,hadibu,12.65,54.0333,294.96,64,61,6.51,YE,03-02-2025
231,ust'-kulom,61.6864,53.6902,268.81,95,100,3.99,RU,03-02-2025
232,coquimbo,-29.9533,-71.3436,295.92,51,0,6.17,CL,03-02-2025
233,haiku-pauwela,20.9219,-156.3051,295.95,76,14,3.58,US,03-02-2025
234,okha,53.5739,142.9478,249.96,98,87,3.25,RU,04-02-2025
235,shendi,16.6915,33.4341,300.69,28,0,4.78,SD,03-02-2025
236,hovd,48.0056,91.6419,253.6,74,100,2.98,MN,04-02-2025
237,pimentel,-6.8367,-79.9342,302.31,51,0,5.66,PE,03-02-2025
238,remire-montjoly,4.9167,-52.2667,301.17,78,75,6.17,GF,03-02-2025
239,lihue,21.9789,-159.3672,295.23,75,20,3.09,US,03-02-2025
240,katsuura,35.1333,140.3,282.8,57,47,6.65,JP,04-02-2025
241,vallenar,-28.5708,-70.7581,304.33,29,2,5.3,CL,03-02-2025
242,salahonda,2.1019,-78.7217,299.68,83,26,7.99,CO,03-02-2025
243,usogorsk,63.4106,48.6872,256.38,96,100,3.36,RU,03-02-2025
244,opuwo,-18.0607,13.84,296.37,58,37,3.46,NA,03-02-2025
245,hongch'on,37.6918,127.8857,260.02,64,0,4.07,KR,04-02-2025
246,alaghsas,17.0187,8.0168,299.09,12,100,3.09,NE,03-02-2025
247,santona,43.4439,-3.4576,285.41,85,0,0.95,ES,03-02-2025
248,ain beida,35.7964,7.3928,279.18,82,100,3.53,DZ,03-02-2025
249,yanggu,36.1106,115.7753,269.68,28,0,3.6,CN,04-02-2025
250,fale old settlement,-9.3852,-171.2468,301.45,71,26,6.02,TK,04-02-2025
251,vernon,50.2581,-119.2691,261.17,58,100,2.24,CA,03-02-2025
252,aksu,41.1231,80.2644,265.97,74,7,1.35,CN,04-02-2025
253,olyokminsk,60.3736,120.4264,252.92,89,100,5.78,RU,04-02-2025
254,menongue,-14.6585,17.691,292.76,93,100,1.11,AO,03-02-2025
255,magistral'nyy,56.1725,107.4458,241.58,98,98,1.22,RU,04-02-2025
256,arraial do cabo,-22.9661,-42.0278,307.13,55,20,7.72,BR,03-02-2025
257,hithadhoo,-0.6,73.0833,300.82,73,100,1.92,MV,03-02-2025
258,visby,57.6409,18.296,272.49,80,75,2.06,SE,03-02-2025
259,ola,59.5833,151.2833,243.6,85,12,3.01,RU,04-02-2025
260,dawson creek,55.7666,-120.2362,238.95,68,0,0.0,CA,03-02-2025
261,tondano,1.3038,124.9112,292.37,92,100,0.88,ID,04-02-2025
262,i-n-salah,27.1935,2.4607,288.54,23,0,3.93,DZ,03-02-2025
263,puerto la cruz,10.2167,-64.6167,299.2,77,100,5.92,VE,03-02-2025
264,djenne,13.9061,-4.5533,298.54,14,100,3.64,ML,03-02-2025
265,rawai,7.7797,98.3253,299.92,68,69,2.89,TH,04-02-2025
266,afaahiti,-17.75,-149.2833,299.42,73,19,5.83,PF,03-02-2025
267,lebu,-37.6167,-73.65,290.96,61,6,5.12,CL,03-02-2025
268,randers,56.4667,10.05,272.8,80,100,4.14,DK,03-02-2025
269,nema,57.5067,50.5011,270.31,96,100,3.92,RU,03-02-2025
270,mukalla,14.5425,49.1242,294.18,53,100,2.56,YE,03-02-2025
271,corner brook,48.9667,-57.9484,268.09,91,100,3.46,CA,03-02-2025
272,nova sintra,14.8667,-24.7167,295.31,67,9,10.02,CV,03-02-2025
273,lagunas,-5.2269,-75.6753,307.91,41,59,1.35,PE,03-02-2025
274,bangolo,7.0069,-7.475,299.68,24,39,1.12,CI,03-02-2025
275,sechura,-5.5569,-80.8222,301.93,54,64,7.31,PE,03-02-2025
276,muisne,0.6,-80.0333,300.71,72,48,3.75,EC,03-02-2025
277,gadzhiyevo,69.2551,33.3362,255.42,99,97,1.6,RU,03-02-2025
278,egilsstadir,65.2653,-14.3948,279.1,61,75,13.89,IS,03-02-2025
279,makokou,0.5738,12.8642,296.94,74,98,1.03,GA,03-02-2025
280,blythe,33.6103,-114.5964,292.4,34,0,1.54,US,03-02-2025
281,gurupi,-11.7292,-49.0686,299.42,75,100,0.65,BR,03-02-2025
282,verkhnevilyuysk,63.4453,120.3167,252.36,95,100,6.02,RU,04-02-2025
283,zaozersk,69.4005,32.4476,254.05,99,96,0.86,RU,03-02-2025
284,frontera,26.9333,-101.45,301.66,22,0,0.89,MX,03-02-2025
285,shkoder,42.0683,19.5126,283.12,65,100,2.99,AL,03-02-2025
286,muroto-misakicho,33.2833,134.15,278.12,59,7,11.11,JP,04-02-2025
287,kolonia,50.9333,6.95,275.91,76,0,1.54,DE,03-02-2025
288,south hedland,-20.4089,118.5983,302.11,84,94,3.09,AU,04-02-2025
289,howrah,22.5892,88.3103,294.15,73,2,3.09,IN,04-02-2025
290,daru,-9.0763,143.2092,298.68,92,100,6.15,PG,04-02-2025
291,inarajan village,13.2736,144.7484,298.93,88,97,5.08,GU,04-02-2025
292,pauini,-7.7136,-66.9764,301.23,78,44,2.42,BR,03-02-2025
293,alo,6.5486,4.2686,300.78,83,11,4.43,NG,03-02-2025
294,katsuren-haebaru,26.3369,127.8719,287.16,64,100,6.69,JP,04-02-2025
295,rehoboth,-23.3167,17.0833,294.61,71,100,6.17,NA,03-02-2025
296,boa vista,2.8197,-60.6733,305.14,48,75,7.2,BR,03-02-2025
297,san luis,-33.295,-66.3356,308.6,24,80,1.46,AR,03-02-2025
298,margate,51.3813,1.3862,279.75,85,100,0.89,GB,03-02-2025
299,chebba,35.2372,11.115,288.13,63,91,5.01,TN,03-02-2025
300,bamboo flat,11.7,92.7167,296.2,94,20,0.51,IN,04-02-2025
301,khuldabad,20.05,75.1833,295.76,33,100,0.75,IN,04-02-2025
302,college,64.8569,-147.8028,261.12,85,100,2.06,US,03-02-2025
303,san patricio,28.017,-97.5169,301.12,64,84,5.44,US,03-02-2025
304,san luis de la loma,17.2706,-100.8939,302.41,59,0,3.28,MX,03-02-2025
305,houlton,46.1262,-67.8403,271.38,87,100,2.57,US,03-02-2025
306,tari,-11.1105,14.3559,293.24,93,72,0.91,AO,03-02-2025
307,vera,-29.4593,-60.2126,314.95,13,0,3.72,AR,03-02-2025
308,orkney,-26.9802,26.6727,291.83,92,100,6.44,ZA,03-02-2025
309,diamantina,-18.2494,-43.6003,298.6,47,93,3.16,BR,03-02-2025
310,jilib,0.4883,42.7854,297.26,75,21,5.57,SO,03-02-2025
311,ouahigouya,13.5828,-2.4216,298.48,14,99,3.21,BF,03-02-2025
312,tymovskoye,50.8456,142.655,250.62,100,100,0.74,RU,04-02-2025
313,cabedelo,-6.9811,-34.8339,303.52,67,11,7.23,BR,03-02-2025
314,luderitz,-26.6481,15.1594,291.28,84,4,6.1,NA,03-02-2025
315,panagyurishte,42.5,24.1833,277.01,63,100,2.58,BG,03-02-2025
316,lerwick,60.1545,-1.1494,281.47,92,100,12.78,GB,03-02-2025
317,tha khanon,9.0302,98.9529,294.5,96,11,0.91,TH,04-02-2025
318,los llanos de aridane,28.6585,-17.9182,290.01,92,100,6.17,ES,03-02-2025
319,nilsia,63.2,28.0833,261.07,94,53,2.02,FI,03-02-2025
320,tabuk,17.4189,121.4443,294.12,95,100,4.79,PH,04-02-2025
321,pandan,14.0453,124.1694,296.92,84,99,2.9,PH,04-02-2025
322,wau,7.7029,27.9953,302.54,21,88,2.0,SS,03-02-2025
323,kavaratti,10.5669,72.642,300.62,72,1,4.15,IN,04-02-2025
324,powell,40.1578,-83.0752,288.77,70,0,5.66,US,03-02-2025
325,jamaame,0.0697,42.745,297.29,82,31,6.95,SO,03-02-2025
326,hargeysa,9.56,44.065,286.24,83,96,4.23,SO,03-02-2025
327,penzance,50.1186,-5.5371,283.53,76,100,8.89,GB,03-02-2025
328,fada,7.25,4.0667,303.35,54,58,2.83,NG,03-02-2025
329,nicoya,10.1483,-85.452,307.1,35,1,6.68,CR,03-02-2025
330,tabarka,36.9544,8.758,286.51,82,40,3.09,TN,03-02-2025
331,liwale,-9.7667,37.9333,295.05,96,64,1.35,TZ,03-02-2025
332,marat,25.0701,45.4615,286.93,19,8,2.56,SA,03-02-2025
333,sabang,5.8933,95.3214,300.49,73,100,2.78,ID,04-02-2025
334,fort irwin,35.2627,-116.6848,287.89,44,0,0.0,US,03-02-2025
335,hilo,19.7297,-155.09,295.99,79,0,0.89,US,03-02-2025
336,sosnovka,56.255,51.2842,270.4,95,100,3.76,RU,03-02-2025
337,qarazhal,48.0078,70.7903,262.45,83,5,4.58,KZ,03-02-2025
338,colonial heights,37.268,-77.4073,293.41,43,0,3.6,US,03-02-2025
339,aasiaat,68.7098,-52.8699,254.45,93,100,2.26,GL,03-02-2025
340,benisheikh,11.8072,12.4909,297.95,17,96,4.42,NG,03-02-2025
341,labuan,5.2767,115.2417,298.35,94,40,0.0,MY,04-02-2025
342,lukolela,-1.0605,17.1821,297.13,81,100,0.59,CD,03-02-2025
343,machico,32.7,-16.7667,290.77,74,75,6.17,PT,03-02-2025
344,upington,-28.4478,21.2561,303.86,14,0,3.65,ZA,03-02-2025
345,queenstown,-31.8976,26.8753,290.84,93,20,3.38,ZA,03-02-2025
346,santa terezinha,-29.9002,-50.0904,299.57,82,11,6.93,BR,03-02-2025
347,aitape,-3.1374,142.3475,297.41,96,100,2.33,PG,04-02-2025
348,cuajinicuilapa,16.4667,-98.4167,307.36,36,0,2.99,MX,03-02-2025
349,carupano,10.6678,-63.2585,300.3,74,99,6.92,VE,03-02-2025
350,pokrovsk,48.282,37.1758,273.4,90,100,1.93,UA,03-02-2025
351,ancud,-41.8697,-73.8203,287.07,76,100,4.29,CL,03-02-2025
352,mut,36.6439,33.4389,283.9,80,5,1.31,TR,03-02-2025
353,la barceloneta,41.3807,2.1899,285.79,63,0,3.13,ES,03-02-2025
354,sodankyla,67.4167,26.6,244.26,100,78,1.17,FI,03-02-2025
355,new london,41.4834,-72.0662,278.97,79,20,4.12,US,03-02-2025
356,cole harbour,44.6724,-63.4751,272.43,89,100,5.66,CA,03-02-2025
357,topchikha,52.8192,83.1185,260.13,97,91,1.82,RU,04-02-2025
358,vadso,70.0744,29.7487,265.24,73,1,3.09,NO,03-02-2025
359,carauari,-4.8828,-66.8958,295.82,98,100,0.7,BR,03-02-2025
360,chaksu,26.6,75.95,292.66,46,24,3.95,IN,04-02-2025
361,miasskoye,55.2784,61.8905,272.52,95,100,4.85,RU,03-02-2025
362,mala,-12.6581,-76.6308,298.67,68,58,3.53,PE,03-02-2025
363,kota belud,6.351,116.4305,297.16,88,58,2.48,MY,04-02-2025
364,port augusta,-32.5,137.7667,301.23,48,1,2.88,AU,04-02-2025
365,saint-joseph,-21.3667,55.6167,301.36,81,98,2.55,RE,03-02-2025
366,thunder bay,48.4001,-89.3168,261.14,52,40,6.17,CA,03-02-2025
367,conception bay south,47.4999,-52.9981,270.4,84,100,3.5,CA,03-02-2025
368,port alfred,-33.5906,26.891,296.03,85,1,0.89,ZA,03-02-2025
369,nuuk,64.1835,-51.7216,261.49,79,75,9.77,GL,03-02-2025
370,qamdo,31.1667,97.2333,269.78,24,0,0.49,CN,04-02-2025
371,dakhla,23.6848,-15.958,291.16,82,0,10.29,EH,03-02-2025
372,maues,-3.3836,-57.7186,302.02,77,100,1.52,BR,03-02-2025
373,itaituba,-4.2761,-55.9836,299.24,89,40,2.57,BR,03-02-2025
374,bardai,11.65,7.2333,298.15,12,51,4.22,NG,03-02-2025
375,brandon,27.9378,-82.2859,302.04,74,75,1.54,US,03-02-2025
376,la mira,18.035,-102.3266,302.88,56,0,4.7,MX,03-02-2025
377,spring creek,40.7266,-115.5859,284.48,56,100,5.36,US,03-02-2025
378,lewistown,40.5992,-77.5714,284.04,69,100,3.34,US,03-02-2025
379,avesta,60.1455,16.1679,269.89,99,100,1.42,SE,03-02-2025
380,gereshk,31.8209,64.5701,280.64,53,3,2.23,AF,03-02-2025
381,crieff,56.3727,-3.8389,281.9,93,100,7.21,GB,03-02-2025
382,utrik,11.2278,169.8474,299.68,66,87,9.7,MH,04-02-2025
383,ponca city,36.707,-97.0856,293.12,35,0,2.06,US,03-02-2025
384,roma,43.2128,-75.4557,277.42,82,100,1.34,US,03-02-2025
385,haapsalu,58.9431,23.5414,270.92,84,100,3.28,EE,03-02-2025
386,karatuzskoye,53.6072,92.8667,259.29,98,100,0.53,RU,04-02-2025
387,novoishimskiy,53.1981,66.7694,262.18,95,100,2.35,KZ,03-02-2025
388,guiyang,26.5833,106.7167,277.42,70,100,1.0,CN,04-02-2025
389,bakanas,44.8081,76.2772,265.13,75,1,6.7,KZ,03-02-2025
390,torbat-e heydariyeh,35.274,59.2195,275.28,47,9,1.01,IR,03-02-2025
391,nanao,37.05,136.9667,274.33,80,100,5.76,JP,04-02-2025
392,dem'yanovo,60.3511,47.0842,268.26,97,100,1.24,RU,03-02-2025
393,isangel,-19.55,169.2667,299.64,87,6,9.97,VU,04-02-2025
394,galliano,29.4422,-90.2992,296.15,60,75,3.6,US,03-02-2025
395,cherdyn',60.403,56.4787,265.49,92,100,5.37,RU,03-02-2025
396,papao,-17.75,-149.55,302.97,70,16,4.03,PF,03-02-2025
397,petrovsk-zabaykal'skiy,51.273,108.843,250.88,92,100,3.8,RU,04-02-2025
398,quellon,-43.1167,-73.6167,284.3,90,100,0.51,CL,03-02-2025
399,puerto baquerizo moreno,-0.9,-89.6,302.7,66,75,2.57,EC,03-02-2025
400,yangjiang,21.85,111.9667,285.4,56,100,4.47,CN,04-02-2025
401,negombo,7.2083,79.8358,297.18,83,0,2.06,LK,04-02-2025
402,bhag,29.0415,67.8239,290.43,23,6,3.55,PK,03-02-2025
403,timimoun,29.2639,0.231,291.36,24,0,1.03,DZ,03-02-2025
404,ketchikan,55.3422,-131.6461,268.14,25,0,4.63,US,03-02-2025
405,shalqar,47.8333,59.6,263.9,91,100,3.68,KZ,03-02-2025
406,ghadamis,30.1337,9.5007,285.23,35,0,2.55,LY,03-02-2025
407,mangrol,21.1167,70.1167,293.82,43,18,4.6,IN,04-02-2025
408,la sarre,48.8002,-79.1996,265.44,89,100,5.96,CA,03-02-2025
409,punta del este,-34.9667,-54.95,308.21,92,20,6.17,UY,03-02-2025
410,camayenne,9.535,-13.6878,304.2,42,75,3.09,GN,03-02-2025
411,jijiga,9.35,42.8,286.46,67,61,3.81,ET,03-02-2025
412,alliance,40.9153,-81.1059,285.73,77,100,6.15,US,03-02-2025
413,thanh hoa,19.8,105.7667,287.88,53,100,3.61,VN,04-02-2025
414,urangan,-25.3,152.9,298.19,81,74,5.62,AU,04-02-2025
415,baiti,13.745,-14.7482,299.84,11,44,3.41,SN,03-02-2025
416,okhotsk,59.3833,143.3,244.61,84,2,5.71,RU,04-02-2025
417,changzhou,31.7833,119.9667,275.91,50,0,1.69,CN,04-02-2025
418,fisterra,42.9049,-9.2629,284.35,67,1,1.81,ES,03-02-2025
419,wellington,-41.2866,174.7756,288.96,88,100,1.54,NZ,04-02-2025
420,port blair,11.6667,92.75,296.17,94,20,0.51,IN,04-02-2025
421,tshabong,-26.05,22.45,298.69,55,80,9.03,BW,03-02-2025
422,varash,51.3485,25.8497,271.99,85,100,4.86,UA,03-02-2025
423,winston,28.0317,-82.0148,301.41,74,40,1.34,US,03-02-2025
424,tongchuan,35.0806,109.0897,269.94,68,0,3.88,CN,04-02-2025
425,kenora,49.8167,-94.4337,253.69,77,75,4.12,CA,03-02-2025
426,isokyro,63.0117,22.3333,260.06,89,59,1.27,FI,03-02-2025
427,sinabang,2.4803,96.3801,299.35,79,100,1.03,ID,04-02-2025
428,bandundu,-3.3167,17.3667,298.39,80,100,1.72,CD,03-02-2025
429,port saint john's,-31.6229,29.5448,296.35,85,99,4.34,ZA,03-02-2025
430,caleta de carquin,-11.0925,-77.6267,297.76,75,42,3.69,PE,03-02-2025
431,minas de marcona,-15.2119,-75.1103,296.43,59,87,5.57,PE,03-02-2025
432,sol'-iletsk,51.1631,54.9918,270.66,94,100,5.14,RU,03-02-2025
433,cuito,-12.3833,16.9333,290.17,95,100,2.37,AO,03-02-2025
434,bonthe,7.5264,-12.505,299.91,71,12,4.43,SL,03-02-2025
435,sao paulo de olivenca,-3.3783,-68.8725,297.41,97,99,1.12,BR,03-02-2025
436,loango,-4.6719,11.8312,299.83,82,100,2.99,CG,03-02-2025
437,kununurra,-15.7667,128.7333,300.14,83,100,0.51,AU,04-02-2025
438,massenya,11.4039,16.1705,301.65,14,43,3.86,TD,03-02-2025
439,fontanelas,38.8472,-9.4372,286.27,66,0,3.09,PT,03-02-2025
440,qusmuryn,52.4503,64.6311,261.95,94,100,1.72,KZ,03-02-2025
441,guarapari,-20.6667,-40.4975,301.17,72,73,5.4,BR,03-02-2025
442,moapa valley,36.5805,-114.4703,294.88,23,100,3.27,US,03-02-2025
443,gaitania,3.0906,-75.6723,292.25,82,88,1.7,CO,03-02-2025
444,lorengau,-2.0226,147.2712,300.95,74,100,2.88,PG,04-02-2025
445,kamikawa,43.84,142.7711,270.22,78,100,6.57,JP,04-02-2025
446,fort st. john,56.2499,-120.8529,243.09,76,20,0.0,CA,03-02-2025
447,leava,-14.3,-178.1667,301.49,75,18,3.56,WF,04-02-2025
448,eberbach,49.4694,8.9928,272.31,71,18,0.76,DE,03-02-2025
449,kargopol',61.5071,38.9456,258.44,96,100,1.82,RU,03-02-2025
450,kristiansund,63.1115,7.732,277.51,81,75,2.57,NO,03-02-2025
451,la ronge,55.1001,-105.2842,250.29,59,20,8.23,CA,03-02-2025
452,lanzhou,36.0564,103.7922,265.16,88,11,1.24,CN,04-02-2025
453,nabire,-3.3667,135.4833,297.93,84,100,1.1,ID,04-02-2025
454,monze,-16.2833,27.4833,293.23,91,94,1.67,ZM,03-02-2025
455,naryn,41.4287,75.9911,258.02,55,8,5.14,KG,04-02-2025
456,kharkhorin,47.1975,102.8238,253.62,87,100,1.84,MN,04-02-2025
457,cannonvale,-20.2833,148.7,299.81,85,100,5.84,AU,04-02-2025
458,este,45.2229,11.6587,279.83,79,0,1.76,IT,03-02-2025
459,mankapur,27.0333,82.2333,287.49,40,39,2.9,IN,04-02-2025
460,gaomi,36.3833,119.7528,267.59,44,0,2.77,CN,04-02-2025
461,minas de matahambre,22.5887,-83.9447,303.16,42,49,4.24,CU,03-02-2025
462,moranbah,-22.0016,148.0466,294.78,97,100,6.07,AU,04-02-2025
463,olavarria,-36.8927,-60.3225,308.25,20,61,4.83,AR,03-02-2025
464,gizo,-8.103,156.8419,301.06,77,95,3.48,SB,04-02-2025
465,konstantinovsk,47.5828,41.0922,274.2,99,100,3.82,RU,03-02-2025
466,flying fish cove,-10.4217,105.6791,298.97,94,100,4.63,CX,04-02-2025
467,namsos,64.4662,11.4957,269.1,63,75,5.66,NO,03-02-2025
468,testour,36.5513,9.4431,284.31,88,94,5.0,TN,03-02-2025
469,morehead city,34.7229,-76.726,290.95,76,87,0.89,US,03-02-2025
470,kangding,30.0513,101.9603,274.89,73,8,1.39,CN,04-02-2025
471,miles city,46.4083,-105.8406,254.69,65,100,4.12,US,03-02-2025
472,pontes e lacerda,-15.2261,-59.3353,307.95,36,32,2.49,BR,03-02-2025
473,mahina,-17.5065,-149.489,303.02,66,0,2.57,PF,03-02-2025
474,jambi city,-1.6,103.6167,296.98,94,100,1.37,ID,04-02-2025
475,manokwari,-0.8667,134.0833,298.67,76,100,1.71,ID,04-02-2025
476,san pedro,14.35,121.0167,299.72,88,40,1.54,PH,04-02-2025
477,parintins,-2.6283,-56.7358,302.02,66,100,2.73,BR,03-02-2025
478,guacamayas,18.0167,-102.2167,303.5,51,0,4.53,MX,03-02-2025
479,kralendijk,12.15,-68.2667,304.14,58,40,9.77,BQ,03-02-2025
480,kurikka,62.6167,22.4167,259.39,100,100,1.13,FI,03-02-2025
481,frederico westphalen,-27.3592,-53.3944,309.78,20,80,1.73,BR,03-02-2025
482,belyy yar,53.6039,91.3903,257.09,100,100,1.0,RU,04-02-2025
483,santa rita do passa quatro,-21.7103,-47.4781,293.11,97,100,2.23,BR,03-02-2025
484,beloyarskiy,63.7119,66.6722,246.89,100,85,1.23,RU,03-02-2025
485,berdigestyakh,62.0989,126.6992,249.05,96,100,3.87,RU,04-02-2025
486,toliara,-23.35,43.6667,300.16,65,77,7.98,MG,03-02-2025
487,nuku'alofa,-21.1333,-175.2,299.34,83,75,3.09,TO,04-02-2025
488,gazojak,41.1875,61.4036,275.36,50,100,3.13,TM,03-02-2025
489,weyburn,49.6668,-103.8511,247.27,70,42,7.2,CA,03-02-2025
490,gaalkacyo,6.7697,47.4308,295.59,48,29,8.83,SO,03-02-2025
491,khash,28.2211,61.2158,279.06,33,0,2.01,IR,03-02-2025
492,al badari,26.9926,31.4155,292.17,22,100,1.98,EG,03-02-2025
493,bull savanna,17.8868,-77.5902,299.76,66,100,7.06,JM,03-02-2025
494,quelimane,-17.8786,36.8883,298.73,92,98,2.85,MZ,03-02-2025
495,kish,26.5578,54.0194,293.65,48,75,7.95,IR,03-02-2025
496,charters towers,-20.1,146.2667,294.88,99,100,4.26,AU,04-02-2025
497,key largo,25.0865,-80.4473,298.15,85,49,4.71,US,03-02-2025
498,katabu,-4.9333,122.5167,297.21,92,100,0.23,ID,04-02-2025
499,prince rupert,54.3161,-130.3201,266.98,40,0,9.26,CA,03-02-2025
500,roxas city,11.5853,122.7511,298.03,84,53,4.54,PH,04-02-2025
501,ar rutbah,33.0381,40.2848,284.93,32,5,2.34,IQ,03-02-2025
502,tosontsengel,48.7567,98.2839,249.78,100,100,1.37,MN,04-02-2025
503,port arthur,38.8,121.2667,263.27,53,100,7.99,CN,04-02-2025
504,t'aebaek,37.1759,128.9889,257.45,77,25,4.83,KR,04-02-2025
505,mtwara,-10.2667,40.1833,299.37,87,29,4.26,TZ,03-02-2025
506,nelson bay,-32.7167,152.15,295.98,90,70,2.68,AU,04-02-2025
507,kourou,5.1552,-52.6478,297.99,89,99,3.91,GF,03-02-2025
508,radhanpur,23.8333,71.6,292.4,36,41,3.99,IN,04-02-2025
509,sestri levante,44.2732,9.3968,283.5,76,0,0.45,IT,03-02-2025
510,uvarovo,51.9849,42.2615,270.86,70,92,1.5,RU,03-02-2025
511,mandalgovi,45.7625,106.2708,252.43,85,96,5.37,MN,04-02-2025
512,antonio enes,-16.2325,39.9086,300.58,85,98,2.27,MZ,03-02-2025
513,narvik,68.4384,17.4272,259.65,78,0,5.81,NO,03-02-2025
514,lauro de freitas,-12.8944,-38.3272,304.16,66,40,5.14,BR,03-02-2025
515,suva,-18.1416,178.4415,296.86,100,75,1.54,FJ,04-02-2025
516,el nido,11.1858,119.3956,297.12,94,100,2.73,PH,04-02-2025
517,leer,53.2316,7.461,274.79,93,100,3.01,DE,03-02-2025
518,port nelson,23.6333,-74.8333,297.38,76,9,7.65,BS,03-02-2025
519,piti village,13.4626,144.6933,298.88,87,0,3.09,GU,04-02-2025
520,robore,-18.3333,-59.75,308.2,49,40,3.09,BO,03-02-2025
521,kutahya,39.4242,29.9833,279.1,77,100,0.78,TR,03-02-2025
522,nuriootpa,-34.4833,139.0,298.96,44,1,1.9,AU,04-02-2025
523,tutoia,-2.7619,-42.2744,300.11,82,100,5.63,BR,03-02-2025
524,ballycastle,55.2044,-6.243,284.56,65,100,9.58,GB,03-02-2025
525,kendari,-3.945,122.4989,297.33,93,98,1.08,ID,04-02-2025
526,pontianak,-0.0333,109.3333,297.53,91,97,2.42,ID,04-02-2025
527,lekki,6.3607,4.8333,300.47,80,43,2.63,NG,03-02-2025
528,quixeramobim,-5.1992,-39.2928,306.88,30,93,3.09,BR,03-02-2025
529,new martinsville,39.6445,-80.8576,290.26,59,100,3.58,US,03-02-2025
530,masterton,-40.9597,175.6575,286.16,83,6,1.77,NZ,04-02-2025
531,zhangye,38.9342,100.4517,263.13,52,0,1.95,CN,04-02-2025
532,laguna,38.421,-121.4238,287.72,84,40,3.6,US,03-02-2025
533,island harbour,50.724,-1.2758,280.38,92,10,0.89,GB,03-02-2025
534,taoudenni,22.6783,-3.9836,292.4,23,0,4.84,ML,03-02-2025
535,arar,30.9753,41.0381,287.16,24,0,2.06,SA,03-02-2025
536,sidney,-33.8679,151.2073,294.94,83,67,1.54,AU,04-02-2025
537,castlegar,49.2998,-117.6689,267.96,88,100,1.85,CA,03-02-2025
538,pimampiro,0.4,-77.9667,295.86,58,92,1.61,EC,03-02-2025
539,fort mcmurray,56.7268,-111.381,246.92,76,100,3.6,CA,03-02-2025
540,bengkulu,-3.8004,102.2655,298.37,89,100,2.16,ID,04-02-2025
541,sola,-13.8833,167.55,300.8,78,84,6.33,VU,04-02-2025
542,shimoda,34.6667,138.95,279.21,52,61,11.52,JP,04-02-2025
543,qina,26.1642,32.7267,294.48,17,99,1.84,EG,03-02-2025
544,broome,42.2506,-75.833,279.61,74,100,4.12,US,03-02-2025
545,bubaque,11.2833,-15.8333,297.55,65,77,6.52,GW,03-02-2025
546,markovo,57.3206,107.0881,242.79,100,100,1.72,RU,04-02-2025
547,bodo,67.28,14.405,268.17,46,0,15.43,NO,03-02-2025
