City_ID,City,Lat,Lng,Max Temp,Humidity,Cloudiness,Wind Speed,Country,Date
0,ebon,4.582,168.6964,300.58,80,52,10.91,MH,04-02-2025
1,bethel,41.3712,-73.414,276.89,78,0,2.57,US,03-02-2025
2,stanley,54.868,-1.6985,281.22,75,20,4.63,GB,03-02-2025
3,whitehorse,60.7161,-135.0538,256.58,85,100,2.06,CA,03-02-2025
4,banamba,13.55,-7.45,300.87,11,78,4.19,ML,03-02-2025
5,la passe,45.5549,-0.8967,281.48,76,0,2.9,FR,03-02-2025
6,west island,-12.1568,96.8225,301.14,89,75,4.12,CC,03-02-2025
7,edinburgh of the seven seas,-37.0676,-12.3116,288.34,73,100,6.2,SH,03-02-2025
8,ghat,24.9647,10.1728,291.73,22,39,3.76,LY,03-02-2025
9,waitangi,-43.9535,-176.5597,287.49,93,57,5.81,NZ,04-02-2025
10,akureyri,65.6835,-18.0878,278.11,60,75,9.26,IS,03-02-2025
11,port-aux-francais,-49.35,70.2167,276.73,67,28,0.83,TF,03-02-2025
12,uturoa,-16.7333,-151.4333,300.48,75,21,4.5,PF,03-02-2025
13,kapa'a,22.0752,-159.319,292.33,94,20,4.12,US,03-02-2025
14,hammerfest,70.6634,23.6821,263.4,48,0,4.63,NO,03-02-2025
15,hasaki,35.7333,140.8333,281.12,77,72,6.33,JP,04-02-2025
16,belmonte,-15.8631,-38.8828,302.99,58,4,4.07,BR,03-02-2025
17,adamstown,-25.066,-130.1015,297.52,76,97,6.74,PN,03-02-2025
18,selfoss,63.9331,-20.9971,275.95,78,100,16.2,IS,03-02-2025
19,khandyga,62.6667,135.6,236.48,97,100,2.15,RU,04-02-2025
20,shiqian,27.5225,108.2281,277.79,80,21,1.0,CN,04-02-2025
21,canutama,-6.5339,-64.3831,299.47,80,100,0.45,BR,03-02-2025
22,salalah,17.0151,54.0924,297.2,16,0,4.12,OM,03-02-2025
23,iqaluit,63.7506,-68.5145,243.0,67,0,0.0,CA,03-02-2025
24,punta arenas,-53.15,-70.9167,284.21,46,40,12.86,CL,03-02-2025
25,atafu village,-8.5421,-172.5159,301.84,64,80,5.09,TK,04-02-2025
26,genhe,50.7833,121.5167,246.03,98,99,1.19,CN,04-02-2025
27,fortuna,40.5982,-124.1573,278.9,98,100,2.06,US,03-02-2025
28,port lincoln,-34.7333,135.8667,293.55,79,17,6.59,AU,04-02-2025
29,isafjordur,66.0755,-23.124,270.04,94,100,23.24,IS,03-02-2025
30,longyearbyen,78.2186,15.6401,273.06,69,20,8.75,SJ,03-02-2025
31,kuanda,56.3161,116.0806,237.86,97,73,0.31,RU,04-02-2025
32,idri,27.5,13.2667,290.19,27,0,3.49,LY,03-02-2025
33,inari,68.906,27.0288,247.43,100,86,0.75,FI,03-02-2025
34,porto novo,6.4965,2.6036,303.05,72,27,4.36,BJ,03-02-2025
35,invercargill,-46.4,168.35,282.04,90,38,0.44,NZ,04-02-2025
36,novo brdo,45.5864,16.0229,278.8,56,0,2.06,HR,03-02-2025
37,georgetown,5.4112,100.3354,299.11,73,20,0.51,MY,04-02-2025
38,ribeira grande,38.5167,-28.7,290.37,82,75,6.26,PT,03-02-2025
39,kailua-kona,19.6406,-155.9956,292.9,80,0,3.6,US,03-02-2025
40,peace river,56.2501,-117.286,240.18,86,0,0.0,CA,03-02-2025
41,tofol,5.3248,163.0078,301.11,79,55,11.74,FM,04-02-2025
42,vilyuysk,63.7553,121.6247,251.68,96,100,5.8,RU,04-02-2025
43,qaqortoq,60.7167,-46.0333,255.92,85,6,1.22,GL,03-02-2025
44,wailua homesteads,22.0669,-159.378,291.59,94,20,4.12,US,03-02-2025
45,albany,42.6001,-73.9662,276.06,79,100,0.89,US,03-02-2025
46,iskateley,67.6803,53.1512,245.31,93,6,3.91,RU,03-02-2025
47,port elizabeth,-33.918,25.5701,295.55,85,0,0.89,ZA,03-02-2025
48,caconda,-13.7333,15.0667,289.89,97,100,3.5,AO,03-02-2025
49,yellowknife,62.456,-114.3525,243.46,76,75,4.12,CA,03-02-2025
50,cabo san lucas,22.8909,-109.9124,297.32,39,40,2.06,MX,03-02-2025
51,abadan,30.3392,48.3043,287.12,47,0,1.03,IR,03-02-2025
52,novo aripuana,-5.1206,-60.3797,301.14,83,81,0.97,BR,03-02-2025
53,floro,61.5996,5.0328,279.13,81,75,8.23,NO,03-02-2025
54,nelidovo,56.2211,32.7774,269.79,85,88,2.54,RU,03-02-2025
55,greenville,35.6127,-77.3663,286.01,90,100,0.0,US,03-02-2025
56,bredasdorp,-34.5322,20.0403,293.18,65,0,2.45,ZA,03-02-2025
57,thompson,55.7435,-97.8558,249.24,70,75,4.63,CA,03-02-2025
58,puerto ayora,-0.7393,-90.3518,299.57,91,45,2.68,EC,03-02-2025
59,st. john's,47.5649,-52.7093,269.42,78,100,5.14,CA,03-02-2025
60,chinde,26.8212,87.7095,288.39,59,0,3.08,NP,03-02-2025
61,grytviken,-54.2811,-36.5092,278.61,94,100,1.9,GS,03-02-2025
62,hermanus,-34.4187,19.2345,295.26,74,0,1.61,ZA,03-02-2025
63,antigonish,45.6169,-61.9986,270.27,82,100,2.24,CA,03-02-2025
64,enewetak,11.3474,162.3373,299.95,65,100,10.62,MH,04-02-2025
65,ulladulla,-35.35,150.4667,291.59,93,4,2.68,AU,04-02-2025
66,olonkinbyen,70.9221,-8.7187,274.4,96,100,16.59,SJ,03-02-2025
67,new norfolk,-42.7826,147.0587,291.44,52,0,1.41,AU,04-02-2025
68,alice springs,-23.7,133.8833,300.9,39,0,3.6,AU,04-02-2025
69,inhambane,-23.865,35.3833,299.53,78,2,4.57,MZ,03-02-2025
70,santa sylvina,-27.8326,-61.1375,314.15,15,0,2.04,AR,03-02-2025
71,koryazhma,61.3143,47.1691,264.55,96,100,1.66,RU,03-02-2025
72,hawaiian paradise park,19.5933,-154.9731,288.88,72,20,3.6,US,03-02-2025
73,ushuaia,-54.8,-68.3,281.96,61,75,11.83,AR,03-02-2025
74,rio gallegos,-51.6226,-69.2181,287.18,35,75,9.26,AR,03-02-2025
75,carnarvon,-24.8667,113.6333,301.33,63,7,10.38,AU,04-02-2025
76,puerto natales,-51.7236,-72.4875,282.4,76,75,7.2,CL,03-02-2025
77,ust-nera,64.5667,143.2,230.93,99,88,1.7,RU,04-02-2025
78,bilibino,68.0546,166.4372,240.52,99,100,0.92,RU,04-02-2025
79,mahibadhoo,3.7833,72.9667,300.85,75,30,5.47,MV,03-02-2025
80,margaret river,-33.95,115.0667,287.9,84,0,5.96,AU,04-02-2025
81,rio grande,-32.035,-52.0986,301.74,70,17,5.73,BR,03-02-2025
82,chilecito,-29.1619,-67.4974,306.02,32,0,3.57,AR,03-02-2025
83,midvagur,62.0511,-7.1939,280.61,70,100,12.35,FO,03-02-2025
84,saipan,15.1355,145.701,298.54,88,40,1.54,MP,04-02-2025
85,pisco,-13.7,-76.2167,298.18,73,0,4.12,PE,03-02-2025
86,staryye ozinki,51.1786,49.6769,272.0,98,100,3.49,RU,03-02-2025
87,maple ridge,49.2194,-122.6019,269.03,89,100,3.09,CA,03-02-2025
88,videira,-27.0083,-51.1517,299.33,63,42,0.93,BR,03-02-2025
89,ilulissat,69.2167,-51.1,259.16,72,75,4.63,GL,03-02-2025
90,brookings,44.3114,-96.7984,264.36,79,100,6.17,US,03-02-2025
91,tadine,-21.55,167.8833,298.18,90,100,10.85,NC,04-02-2025
92,kupang,-10.1667,123.5833,300.47,100,75,2.06,ID,04-02-2025
93,sisimiut,66.9395,-53.6735,256.59,95,100,2.53,GL,03-02-2025
94,crane,31.3974,-102.3501,295.38,17,0,3.8,US,03-02-2025
95,saacow,1.6279,42.4407,300.51,51,46,8.3,SO,03-02-2025
96,nanga eboko,4.6833,12.3667,300.67,21,50,0.93,CM,03-02-2025
97,tacna,-18.0056,-70.2483,299.26,47,0,5.14,PE,03-02-2025
98,itoman,26.1247,127.6694,287.26,72,100,12.35,JP,04-02-2025
99,tucuma,-0.1833,-50.05,300.55,81,59,2.47,BR,03-02-2025
100,geraldton,-28.7667,114.6,296.38,78,0,6.69,AU,04-02-2025
101,tomohon,1.3346,124.8392,291.82,89,100,0.45,ID,04-02-2025
102,xiazhuang,34.9161,118.6389,270.09,34,0,2.08,CN,04-02-2025
103,tazovsky,67.4667,78.7,238.93,100,86,1.47,RU,03-02-2025
104,balakhta,55.38,91.6,256.67,98,99,0.44,RU,04-02-2025
105,nemuro,43.3236,145.575,272.03,95,100,12.69,JP,04-02-2025
106,bryan,30.6744,-96.37,296.19,83,100,4.63,US,03-02-2025
107,broken hill,-31.95,141.4333,299.51,45,64,2.26,AU,04-02-2025
108,namibe,-15.1961,12.1522,296.67,81,71,4.54,AO,03-02-2025
109,tura,25.5198,90.2201,289.09,56,0,1.74,IN,03-02-2025
110,blackmans bay,-43.0167,147.3167,293.22,89,0,2.79,AU,04-02-2025
111,keflavik,64.0049,-22.5624,275.39,75,75,18.01,IS,03-02-2025
112,papatowai,-46.5619,169.4708,285.1,73,94,3.95,NZ,04-02-2025
113,cove,7.221,2.3402,305.56,46,49,3.99,BJ,03-02-2025
114,paso de los libres,-29.7131,-57.0899,311.17,34,40,1.03,AR,03-02-2025
115,jaguarari,-10.2639,-40.1958,300.22,55,71,4.4,BR,03-02-2025
116,east ballina,-28.8667,153.5833,294.97,90,98,1.08,AU,04-02-2025
117,ilhabela,-23.7781,-45.3581,299.38,88,100,1.48,BR,03-02-2025
118,tres arroyos,-38.3739,-60.2798,302.91,35,53,3.24,AR,03-02-2025
119,darwin,-12.4611,130.8418,303.14,84,100,6.69,AU,04-02-2025
120,antofagasta,-23.65,-70.4,296.75,72,24,3.14,CL,03-02-2025
121,richards bay,-28.783,32.0377,297.62,90,96,2.52,ZA,03-02-2025
122,johvi,59.3592,27.4211,267.47,87,100,4.12,EE,03-02-2025
123,cantaura,9.3057,-64.3584,308.02,32,46,5.64,VE,03-02-2025
124,pacific grove,36.6177,-121.9166,287.4,90,100,4.92,US,03-02-2025
125,tolanaro,-25.0319,46.9987,300.19,69,20,7.2,MG,03-02-2025
126,lecheng,25.1238,113.3254,279.35,95,92,1.59,CN,04-02-2025
127,vila franca do campo,37.7167,-25.4333,291.42,99,100,5.49,PT,03-02-2025
128,tual,-5.6667,132.75,301.53,74,100,9.92,ID,04-02-2025
129,acapulco de juarez,16.8634,-99.8901,302.05,74,0,0.0,MX,03-02-2025
130,gebeit,21.0667,36.3167,292.45,40,78,3.98,SD,03-02-2025
131,tyumentsevo,53.3224,81.498,264.42,96,99,2.32,RU,04-02-2025
132,virginia,37.5481,-77.4467,291.53,53,75,3.6,US,03-02-2025
133,turbat,26.0023,63.044,290.61,28,0,1.88,PK,03-02-2025
134,madang,-5.2246,145.7966,297.56,92,100,2.45,PG,04-02-2025
135,klyuchi,52.2667,79.1667,270.13,92,100,1.81,RU,04-02-2025
136,ratnagiri,16.9833,73.3,295.98,77,49,3.21,IN,03-02-2025
137,cestos city,5.46,-9.5828,301.52,71,50,3.9,LR,03-02-2025
138,mananjary,-21.2167,48.3333,298.1,79,42,5.57,MG,03-02-2025
139,chonchi,-42.6128,-73.8092,287.66,53,100,1.6,CL,03-02-2025
140,east london,-33.0153,27.9116,296.79,75,36,6.22,ZA,03-02-2025
141,praia da vitoria,38.7333,-27.0667,288.29,100,75,6.14,PT,03-02-2025
142,ugoofaaru,5.6667,73.0,300.88,70,49,3.52,MV,03-02-2025
143,hamilton,39.1834,-84.5333,291.04,58,0,9.26,US,03-02-2025
144,lejanias,3.5251,-74.0216,301.05,50,81,3.19,CO,03-02-2025
145,allapalli,19.4167,80.0667,297.39,41,1,0.43,IN,03-02-2025
146,pendleton,45.6721,-118.7886,275.4,87,100,3.09,US,03-02-2025
147,san pedro pochutla,15.7333,-96.4667,305.77,44,5,3.53,MX,03-02-2025
148,udachny,66.4167,112.4,257.85,94,100,13.62,RU,04-02-2025
149,mejit,10.2753,170.8646,299.49,72,95,9.89,MH,04-02-2025
150,tiksi,71.6872,128.8694,247.95,98,100,0.93,RU,04-02-2025
151,vorgashor,67.5833,63.95,245.1,96,8,2.93,RU,03-02-2025
152,barpathar,26.3,93.8667,289.09,62,0,0.56,IN,03-02-2025
153,port mathurin,-19.6833,63.4167,300.44,85,88,4.78,MU,03-02-2025
154,tazacorte,28.629,-17.9293,291.57,87,75,6.17,ES,03-02-2025
155,danilovka,50.3557,44.1168,272.72,96,100,0.64,RU,03-02-2025
156,kiffa,16.6166,-11.4045,299.18,7,1,4.07,MR,03-02-2025
157,touros,-5.1989,-35.4608,302.97,61,98,7.72,BR,03-02-2025
158,badger,64.8,-147.5333,258.1,85,100,0.0,US,03-02-2025
159,dauphin,51.1494,-100.0502,249.23,70,0,7.2,CA,03-02-2025
160,sitka,57.0531,-135.33,271.09,29,0,2.06,US,03-02-2025
161,flin flon,54.7682,-101.865,251.06,64,100,5.14,CA,03-02-2025
162,kodiak,57.79,-152.4072,272.88,80,0,5.14,US,03-02-2025
163,fort bragg,35.139,-79.006,289.16,64,0,3.6,US,03-02-2025
164,jamestown,42.097,-79.2353,279.57,100,100,5.66,US,03-02-2025
165,anadyr,64.75,177.4833,273.43,86,0,10.0,RU,04-02-2025
166,magong,23.5654,119.5863,287.69,73,99,17.77,TW,04-02-2025
167,langsa,4.4683,97.9683,295.75,89,100,0.38,ID,04-02-2025
168,kingston,17.997,-76.7936,303.68,55,20,4.12,JM,03-02-2025
169,lata,40.1629,-8.3327,280.97,76,0,1.94,PT,03-02-2025
170,crucecita,-28.95,-58.9833,314.83,14,0,3.17,AR,03-02-2025
171,lawas,13.764,121.0566,296.32,93,98,3.21,PH,04-02-2025
172,mount isa,-20.7333,139.5,297.02,94,100,4.63,AU,04-02-2025
173,taltal,-25.4,-70.4833,294.66,74,16,3.1,CL,03-02-2025
174,tsiombe,-25.3,45.4833,297.04,77,21,4.53,MG,03-02-2025
175,constantia,44.1833,28.65,273.54,66,94,5.58,RO,03-02-2025
176,sorong,-0.8833,131.25,299.52,81,100,5.76,ID,04-02-2025
177,sao jose dos pinhais,-25.5347,-49.2064,297.5,77,75,5.14,BR,03-02-2025
178,choibalsan,48.0667,114.5,254.18,89,95,3.88,MN,04-02-2025
179,praya,14.9215,-23.5087,297.45,43,75,10.8,CV,03-02-2025
180,codrington,-38.2667,141.9667,298.39,55,55,7.38,AU,04-02-2025
181,san antonio de pale,-1.4014,5.6325,300.76,73,68,2.04,GQ,03-02-2025
182,nar'yan-mar,67.6713,53.087,245.29,93,6,3.93,RU,03-02-2025
183,sinop,41.7711,34.8709,278.68,91,86,1.23,TR,03-02-2025
184,achinsk,56.2694,90.4993,251.35,100,81,1.15,RU,04-02-2025
185,micheweni,-4.9667,39.8333,299.96,79,94,7.98,TZ,03-02-2025
186,dryden,49.7833,-92.7503,253.31,77,100,5.14,CA,03-02-2025
187,galle,6.0367,80.217,298.69,79,98,1.64,LK,03-02-2025
188,astrakhan,46.3497,48.0408,277.08,81,75,4.0,RU,03-02-2025
189,chasong,41.4608,126.6414,251.18,96,90,1.05,KP,04-02-2025
190,petropavlovsk-kamchatsky,53.0452,158.6483,255.48,51,0,4.0,RU,04-02-2025
191,bumba,2.1833,22.4667,303.67,30,100,0.81,CD,03-02-2025
192,betio village,1.358,172.9211,300.17,86,43,6.6,KI,04-02-2025
193,sao joao da barra,-21.6403,-41.0511,307.2,81,100,5.86,BR,03-02-2025
194,dudinka,69.4058,86.1778,251.8,88,100,3.81,RU,04-02-2025
195,howard springs,-12.497,131.047,303.1,93,100,6.02,AU,04-02-2025
196,antsiranana,-12.2787,49.2917,298.97,85,100,4.36,MG,03-02-2025
197,ad dilam,23.9915,47.1627,287.6,18,1,2.04,SA,03-02-2025
198,salinopolis,-0.6136,-47.3561,298.7,88,95,4.05,BR,03-02-2025
199,kittila,67.6647,24.8936,244.23,76,0,1.03,FI,03-02-2025
200,georgiyevka,43.0369,74.7114,259.17,92,7,1.0,KZ,03-02-2025
201,mammoth lakes,37.6485,-118.9721,283.55,3,0,15.43,US,03-02-2025
202,vilyuchinsk,52.9306,158.4028,256.3,73,15,3.79,RU,04-02-2025
203,lamu,-2.2717,40.902,298.22,82,44,7.78,KE,03-02-2025
204,talnakh,69.4865,88.3972,251.97,92,100,2.35,RU,04-02-2025
205,likiep,9.8251,169.3107,299.85,68,98,10.13,MH,04-02-2025
206,san jose del guaviare,2.5729,-72.6459,307.72,32,54,3.85,CO,03-02-2025
207,weno,7.4515,151.8468,302.12,84,100,4.12,FM,04-02-2025
208,holualoa,19.6228,-155.9522,290.12,81,0,3.6,US,03-02-2025
209,labrador city,52.9463,-66.9114,257.1,72,100,3.09,CA,03-02-2025
210,la'ie,21.6477,-157.9253,292.81,72,19,5.0,US,03-02-2025
211,beau vallon,-20.4189,57.6953,301.28,83,40,2.57,MU,03-02-2025
212,alotau,-10.3069,150.4462,299.03,89,100,2.69,PG,04-02-2025
213,rongelap,11.1635,166.8941,299.57,68,59,9.91,MH,04-02-2025
214,san rafael,-34.6177,-68.3301,301.04,22,88,3.21,AR,03-02-2025
215,cooper's town,26.8667,-77.5167,296.05,77,11,3.9,BS,03-02-2025
216,polyarnyy,69.1989,33.4478,254.54,100,33,1.38,RU,03-02-2025
217,jati,24.3539,68.2671,291.5,57,0,3.29,PK,03-02-2025
218,tindouf,27.6711,-8.1474,294.4,13,0,4.63,DZ,03-02-2025
219,junin,-34.5838,-60.9433,315.47,9,75,5.11,AR,03-02-2025
220,xiaoweizhai,26.1903,107.5125,275.68,85,11,1.73,CN,04-02-2025
221,horta,38.5333,-28.6333,289.95,86,75,6.71,PT,03-02-2025
222,aykhal,66.0,111.5,256.98,95,100,14.33,RU,04-02-2025
223,swakopmund,-22.6833,14.5333,290.97,86,45,3.03,NA,03-02-2025
224,kingscliff,-28.2667,153.5667,295.34,100,75,2.57,AU,04-02-2025
225,chishmy,54.5765,55.3764,270.91,95,100,5.34,RU,03-02-2025
226,saudarkrokur,65.7461,-19.6394,272.35,79,100,18.38,IS,03-02-2025
227,thurso,58.5927,-3.5259,283.29,75,100,8.03,GB,03-02-2025
228,al jubayl,27.0112,49.6583,289.9,44,3,2.37,SA,03-02-2025
229,avarua,-21.2078,-159.775,301.18,74,82,3.6,CK,03-02-2025
230,hadibu,12.65,54.0333,295.16,62,58,7.08,YE,03-02-2025
231,ust'-kulom,61.6864,53.6902,269.03,95,100,3.98,RU,03-02-2025
232,coquimbo,-29.9533,-71.3436,294.0,68,0,6.17,CL,03-02-2025
233,haiku-pauwela,20.9219,-156.3051,292.15,87,4,3.58,US,03-02-2025
234,okha,53.5739,142.9478,249.75,98,85,3.4,RU,04-02-2025
235,shendi,16.6915,33.4341,301.24,28,1,4.98,SD,03-02-2025
236,hovd,48.0056,91.6419,253.67,74,82,2.94,MN,04-02-2025
237,pimentel,-6.8367,-79.9342,301.31,57,0,4.63,PE,03-02-2025
238,remire-montjoly,4.9167,-52.2667,301.17,78,100,5.66,GF,03-02-2025
239,lihue,21.9789,-159.3672,291.92,82,20,4.12,US,03-02-2025
240,katsuura,35.1333,140.3,283.39,55,61,8.61,JP,04-02-2025
241,vallenar,-28.5708,-70.7581,304.68,29,0,5.9,CL,03-02-2025
242,salahonda,2.1019,-78.7217,299.8,82,64,7.53,CO,03-02-2025
243,usogorsk,63.4106,48.6872,256.78,96,100,3.75,RU,03-02-2025
244,opuwo,-18.0607,13.84,299.21,45,71,6.4,NA,03-02-2025
245,hongch'on,37.6918,127.8857,260.2,62,4,4.3,KR,04-02-2025
246,alaghsas,17.0187,8.0168,302.09,10,54,5.14,NE,03-02-2025
247,santona,43.4439,-3.4576,285.41,85,60,0.51,ES,03-02-2025
248,ain beida,35.7964,7.3928,279.21,84,100,3.14,DZ,03-02-2025
249,yanggu,36.1106,115.7753,270.3,23,1,2.98,CN,04-02-2025
250,fale old settlement,-9.3852,-171.2468,301.34,72,80,5.51,TK,04-02-2025
251,vernon,50.2581,-119.2691,262.46,65,100,3.58,CA,03-02-2025
252,aksu,41.1231,80.2644,266.04,73,1,1.2,CN,04-02-2025
253,olyokminsk,60.3736,120.4264,252.43,90,100,5.42,RU,04-02-2025
254,menongue,-14.6585,17.691,292.63,92,99,0.9,AO,03-02-2025
255,magistral'nyy,56.1725,107.4458,241.7,99,94,1.3,RU,04-02-2025
256,arraial do cabo,-22.9661,-42.0278,308.13,55,20,7.2,BR,03-02-2025
257,hithadhoo,-0.6,73.0833,301.08,70,82,1.4,MV,03-02-2025
258,visby,57.6409,18.296,272.27,80,75,3.09,SE,03-02-2025
259,ola,59.5833,151.2833,244.1,87,12,3.33,RU,04-02-2025
260,dawson creek,55.7666,-120.2362,236.95,68,0,0.0,CA,03-02-2025
261,tondano,1.3038,124.9112,292.75,89,100,0.78,ID,04-02-2025
262,i-n-salah,27.1935,2.4607,289.87,24,0,3.77,DZ,03-02-2025
263,puerto la cruz,10.2167,-64.6167,298.38,74,80,3.63,VE,03-02-2025
264,djenne,13.9061,-4.5533,300.13,13,97,3.77,ML,03-02-2025
265,rawai,7.7797,98.3253,302.58,78,33,2.28,TH,04-02-2025
266,afaahiti,-17.75,-149.2833,299.39,74,33,5.76,PF,03-02-2025
267,lebu,-37.6167,-73.65,290.95,62,1,5.33,CL,03-02-2025
268,randers,56.4667,10.05,273.36,82,98,3.47,DK,03-02-2025
269,nema,57.5067,50.5011,270.3,96,100,3.78,RU,03-02-2025
270,mukalla,14.5425,49.1242,294.45,53,21,2.34,YE,03-02-2025
271,corner brook,48.9667,-57.9484,268.88,93,100,2.78,CA,03-02-2025
272,nova sintra,14.8667,-24.7167,296.05,63,23,6.19,CV,03-02-2025
273,lagunas,-5.2269,-75.6753,308.78,37,98,2.21,PE,03-02-2025
274,bangolo,7.0069,-7.475,304.75,20,61,0.86,CI,03-02-2025
275,sechura,-5.5569,-80.8222,302.16,53,80,5.25,PE,03-02-2025
276,muisne,0.6,-80.0333,300.14,77,77,4.06,EC,03-02-2025
277,gadzhiyevo,69.2551,33.3362,254.12,99,54,1.39,RU,03-02-2025
278,egilsstadir,65.2653,-14.3948,279.1,61,40,12.86,IS,03-02-2025
279,makokou,0.5738,12.8642,298.34,69,98,0.96,GA,03-02-2025
280,blythe,33.6103,-114.5964,289.4,41,0,2.06,US,03-02-2025
281,gurupi,-11.7292,-49.0686,295.99,91,100,1.41,BR,03-02-2025
282,verkhnevilyuysk,63.4453,120.3167,252.13,95,100,6.05,RU,04-02-2025
283,zaozersk,69.4005,32.4476,252.78,99,83,0.78,RU,03-02-2025
284,frontera,26.9333,-101.45,300.0,23,0,0.89,MX,03-02-2025
285,shkoder,42.0683,19.5126,283.68,62,80,2.58,AL,03-02-2025
286,muroto-misakicho,33.2833,134.15,278.12,62,7,11.06,JP,04-02-2025
287,kolonia,50.9333,6.95,277.57,72,0,2.06,DE,03-02-2025
288,south hedland,-20.4089,118.5983,303.11,84,100,3.09,AU,04-02-2025
289,howrah,22.5892,88.3103,294.15,68,0,0.0,IN,03-02-2025
290,daru,-9.0763,143.2092,299.12,90,99,6.61,PG,04-02-2025
291,inarajan village,13.2736,144.7484,298.37,89,100,4.57,GU,04-02-2025
292,pauini,-7.7136,-66.9764,300.03,90,71,2.1,BR,03-02-2025
293,alo,6.5486,4.2686,300.86,78,15,4.69,NG,03-02-2025
294,katsuren-haebaru,26.3369,127.8719,287.26,67,100,9.26,JP,04-02-2025
295,rehoboth,-23.3167,17.0833,296.75,58,99,1.82,NA,03-02-2025
296,boa vista,2.8197,-60.6733,305.14,45,75,6.17,BR,03-02-2025
297,san luis,-33.295,-66.3356,307.75,24,47,0.9,AR,03-02-2025
298,margate,51.3813,1.3862,280.2,83,72,0.45,GB,03-02-2025
299,chebba,35.2372,11.115,288.49,61,30,4.09,TN,03-02-2025
300,bamboo flat,11.7,92.7167,296.2,94,40,1.03,IN,03-02-2025
301,khuldabad,20.05,75.1833,296.83,31,19,1.33,IN,03-02-2025
302,college,64.8569,-147.8028,261.12,92,100,0.0,US,03-02-2025
303,san patricio,28.017,-97.5169,296.12,65,72,5.67,US,03-02-2025
304,san luis de la loma,17.2706,-100.8939,302.37,56,0,3.1,MX,03-02-2025
305,houlton,46.1262,-67.8403,270.38,93,100,4.0,US,03-02-2025
306,tari,-11.1105,14.3559,293.09,94,60,1.11,AO,03-02-2025
307,vera,-29.4593,-60.2126,314.78,13,0,3.59,AR,03-02-2025
308,orkney,-26.9802,26.6727,293.75,75,100,7.56,ZA,03-02-2025
309,diamantina,-18.2494,-43.6003,299.32,45,90,3.5,BR,03-02-2025
310,jilib,0.4883,42.7854,297.59,71,30,5.66,SO,03-02-2025
311,ouahigouya,13.5828,-2.4216,299.52,14,95,3.02,BF,03-02-2025
312,tymovskoye,50.8456,142.655,250.02,100,100,0.62,RU,04-02-2025
313,cabedelo,-6.9811,-34.8339,304.52,67,6,7.2,BR,03-02-2025
314,luderitz,-26.6481,15.1594,292.17,80,0,6.37,NA,03-02-2025
315,panagyurishte,42.5,24.1833,278.06,68,75,3.34,BG,03-02-2025
316,lerwick,60.1545,-1.1494,281.17,94,100,12.0,GB,03-02-2025
317,tha khanon,9.0302,98.9529,294.52,94,2,1.25,TH,04-02-2025
318,los llanos de aridane,28.6585,-17.9182,289.89,87,75,6.17,ES,03-02-2025
319,nilsia,63.2,28.0833,261.07,92,84,2.72,FI,03-02-2025
320,tabuk,17.4189,121.4443,294.23,95,100,4.55,PH,04-02-2025
321,pandan,14.0453,124.1694,297.09,85,83,3.01,PH,04-02-2025
322,wau,7.7029,27.9953,303.16,20,45,2.33,SS,03-02-2025
323,kavaratti,10.5669,72.642,300.65,72,74,4.48,IN,03-02-2025
324,powell,40.1578,-83.0752,286.54,75,0,4.12,US,03-02-2025
325,jamaame,0.0697,42.745,297.57,79,23,7.11,SO,03-02-2025
326,hargeysa,9.56,44.065,287.08,75,100,4.73,SO,03-02-2025
327,penzance,50.1186,-5.5371,283.53,87,0,7.72,GB,03-02-2025
328,fada,7.25,4.0667,303.23,52,61,1.98,NG,03-02-2025
329,nicoya,10.1483,-85.452,306.48,35,8,7.17,CR,03-02-2025
330,tabarka,36.9544,8.758,286.51,82,40,4.63,TN,03-02-2025
331,liwale,-9.7667,37.9333,295.39,96,66,1.98,TZ,03-02-2025
332,marat,25.0701,45.4615,287.62,17,2,2.79,SA,03-02-2025
333,sabang,5.8933,95.3214,300.41,72,76,2.54,ID,04-02-2025
334,fort irwin,35.2627,-116.6848,281.89,66,0,0.0,US,03-02-2025
335,hilo,19.7297,-155.09,291.55,72,20,3.6,US,03-02-2025
336,sosnovka,56.255,51.2842,270.63,96,100,3.34,RU,03-02-2025
337,qarazhal,48.0078,70.7903,261.64,86,9,4.32,KZ,03-02-2025
338,colonial heights,37.268,-77.4073,292.27,53,0,3.6,US,03-02-2025
339,aasiaat,68.7098,-52.8699,254.37,96,100,3.74,GL,03-02-2025
340,benisheikh,11.8072,12.4909,299.71,17,12,5.08,NG,03-02-2025
341,labuan,5.2767,115.2417,297.35,94,40,1.54,MY,04-02-2025
342,lukolela,-1.0605,17.1821,298.87,68,100,0.34,CD,03-02-2025
343,machico,32.7,-16.7667,291.32,78,75,6.17,PT,03-02-2025
344,upington,-28.4478,21.2561,306.02,12,0,4.85,ZA,03-02-2025
345,queenstown,-31.8976,26.8753,292.21,84,1,5.63,ZA,03-02-2025
346,santa terezinha,-29.9002,-50.0904,299.74,82,2,6.68,BR,03-02-2025
347,aitape,-3.1374,142.3475,298.18,93,100,3.12,PG,04-02-2025
348,cuajinicuilapa,16.4667,-98.4167,306.99,38,43,1.92,MX,03-02-2025
349,carupano,10.6678,-63.2585,300.9,70,72,7.25,VE,03-02-2025
350,pokrovsk,48.282,37.1758,273.24,94,100,2.17,UA,03-02-2025
351,ancud,-41.8697,-73.8203,287.29,73,81,4.07,CL,03-02-2025
352,mut,36.6439,33.4389,284.14,78,0,1.44,TR,03-02-2025
353,la barceloneta,41.3807,2.1899,287.11,62,0,2.06,ES,03-02-2025
354,sodankyla,67.4167,26.6,244.38,100,55,1.03,FI,03-02-2025
355,new london,41.4834,-72.0662,277.98,84,20,4.63,US,03-02-2025
356,cole harbour,44.6724,-63.4751,271.46,89,100,6.69,CA,03-02-2025
357,topchikha,52.8192,83.1185,261.59,96,96,1.92,RU,04-02-2025
358,vadso,70.0744,29.7487,265.24,73,0,4.12,NO,03-02-2025
359,carauari,-4.8828,-66.8958,297.06,93,100,1.29,BR,03-02-2025
360,chaksu,26.6,75.95,292.66,42,58,4.06,IN,03-02-2025
361,miasskoye,55.2784,61.8905,272.64,96,100,4.53,RU,03-02-2025
362,mala,-12.6581,-76.6308,298.83,67,34,3.73,PE,03-02-2025
363,kota belud,6.351,116.4305,297.25,89,35,2.44,MY,04-02-2025
364,port augusta,-32.5,137.7667,301.13,49,81,2.83,AU,04-02-2025
365,saint-joseph,-21.3667,55.6167,301.36,83,66,1.8,RE,03-02-2025
366,thunder bay,48.4001,-89.3168,260.1,56,75,5.14,CA,03-02-2025
367,conception bay south,47.4999,-52.9981,269.67,82,88,3.8,CA,03-02-2025
368,port alfred,-33.5906,26.891,296.03,83,0,1.34,ZA,03-02-2025
369,nuuk,64.1835,-51.7216,262.49,73,75,9.26,GL,03-02-2025
370,qamdo,31.1667,97.2333,270.73,26,0,0.66,CN,04-02-2025
371,dakhla,23.6848,-15.958,292.16,77,0,9.26,EH,03-02-2025
372,maues,-3.3836,-57.7186,303.2,69,99,1.25,BR,03-02-2025
373,itaituba,-4.2761,-55.9836,299.24,89,75,4.63,BR,03-02-2025
374,bardai,11.65,7.2333,299.89,12,64,3.97,NG,03-02-2025
375,brandon,27.9378,-82.2859,300.37,83,75,2.06,US,03-02-2025
376,la mira,18.035,-102.3266,302.65,53,1,3.68,MX,03-02-2025
377,spring creek,40.7266,-115.5859,281.7,57,94,4.47,US,03-02-2025
378,lewistown,40.5992,-77.5714,279.6,70,0,0.0,US,03-02-2025
379,avesta,60.1455,16.1679,266.87,97,97,1.31,SE,03-02-2025
380,gereshk,31.8209,64.5701,280.94,51,40,2.95,AF,03-02-2025
381,crieff,56.3727,-3.8389,282.46,94,100,7.02,GB,03-02-2025
382,utrik,11.2278,169.8474,299.49,68,46,10.35,MH,04-02-2025
383,ponca city,36.707,-97.0856,290.9,39,0,3.6,US,03-02-2025
384,roma,43.2128,-75.4557,277.42,81,100,3.09,US,03-02-2025
385,haapsalu,58.9431,23.5414,270.92,84,100,2.78,EE,03-02-2025
386,karatuzskoye,53.6072,92.8667,260.82,97,100,0.27,RU,04-02-2025
387,novoishimskiy,53.1981,66.7694,261.82,95,100,2.19,KZ,03-02-2025
388,guiyang,26.5833,106.7167,277.42,70,100,2.0,CN,04-02-2025
389,bakanas,44.8081,76.2772,265.26,75,0,6.59,KZ,03-02-2025
390,torbat-e heydariyeh,35.274,59.2195,275.61,47,9,0.96,IR,03-02-2025
391,nanao,37.05,136.9667,274.2,88,100,6.11,JP,04-02-2025
392,dem'yanovo,60.3511,47.0842,269.83,97,100,1.08,RU,03-02-2025
393,isangel,-19.55,169.2667,299.57,85,23,9.74,VU,04-02-2025
394,galliano,29.4422,-90.2992,296.15,60,40,3.6,US,03-02-2025
395,cherdyn',60.403,56.4787,265.97,93,100,5.18,RU,03-02-2025
396,papao,-17.75,-149.55,300.97,72,18,4.47,PF,03-02-2025
397,petrovsk-zabaykal'skiy,51.273,108.843,250.63,94,100,3.22,RU,04-02-2025
398,quellon,-43.1167,-73.6167,285.67,80,100,0.58,CL,03-02-2025
399,puerto baquerizo moreno,-0.9,-89.6,302.7,62,40,3.6,EC,03-02-2025
400,yangjiang,21.85,111.9667,286.21,55,100,4.96,CN,04-02-2025
401,negombo,7.2083,79.8358,298.18,78,0,2.06,LK,03-02-2025
402,bhag,29.0415,67.8239,290.87,22,7,3.36,PK,03-02-2025
403,timimoun,29.2639,0.231,292.36,24,0,1.03,DZ,03-02-2025
404,ketchikan,55.3422,-131.6461,266.41,27,0,3.6,US,03-02-2025
405,shalqar,47.8333,59.6,263.97,91,100,3.7,KZ,03-02-2025
406,ghadamis,30.1337,9.5007,286.15,31,0,2.88,LY,03-02-2025
407,mangrol,21.1167,70.1167,294.66,52,3,4.12,IN,03-02-2025
408,la sarre,48.8002,-79.1996,264.91,88,94,6.1,CA,03-02-2025
409,punta del este,-34.9667,-54.95,308.21,92,20,4.92,UY,03-02-2025
410,camayenne,9.535,-13.6878,304.2,42,75,3.09,GN,03-02-2025
411,jijiga,9.35,42.8,287.25,64,100,4.26,ET,03-02-2025
412,alliance,40.9153,-81.1059,285.18,79,100,6.84,US,03-02-2025
413,thanh hoa,19.8,105.7667,287.7,54,100,3.65,VN,04-02-2025
414,urangan,-25.3,152.9,298.06,82,94,5.69,AU,04-02-2025
415,baiti,13.745,-14.7482,303.51,8,42,4.14,SN,03-02-2025
416,okhotsk,59.3833,143.3,244.76,84,1,5.97,RU,04-02-2025
417,changzhou,31.7833,119.9667,276.29,55,50,1.8,CN,04-02-2025
418,fisterra,42.9049,-9.2629,284.65,69,0,1.2,ES,03-02-2025
419,wellington,-41.2866,174.7756,287.96,88,100,1.03,NZ,04-02-2025
420,port blair,11.6667,92.75,296.17,94,40,1.03,IN,03-02-2025
421,tshabong,-26.05,22.45,301.19,43,81,7.01,BW,03-02-2025
422,varash,51.3485,25.8497,272.46,80,98,5.45,UA,03-02-2025
423,winston,28.0317,-82.0148,299.82,82,40,2.06,US,03-02-2025
424,tongchuan,35.0806,109.0897,269.28,71,0,2.89,CN,04-02-2025
425,kenora,49.8167,-94.4337,253.69,71,100,4.63,CA,03-02-2025
426,isokyro,63.0117,22.3333,261.06,89,65,1.49,FI,03-02-2025
427,sinabang,2.4803,96.3801,299.25,80,94,1.5,ID,04-02-2025
428,bandundu,-3.3167,17.3667,300.69,69,99,2.88,CD,03-02-2025
429,port saint john's,-31.6229,29.5448,296.46,85,100,4.8,ZA,03-02-2025
430,caleta de carquin,-11.0925,-77.6267,297.91,74,80,4.11,PE,03-02-2025
431,minas de marcona,-15.2119,-75.1103,296.95,58,93,5.31,PE,03-02-2025
432,sol'-iletsk,51.1631,54.9918,268.82,97,100,4.62,RU,03-02-2025
433,cuito,-12.3833,16.9333,290.5,89,77,2.59,AO,03-02-2025
434,bonthe,7.5264,-12.505,301.42,60,67,5.3,SL,03-02-2025
435,sao paulo de olivenca,-3.3783,-68.8725,299.17,94,92,0.92,BR,03-02-2025
436,loango,-4.6719,11.8312,301.96,79,40,3.09,CG,03-02-2025
437,kununurra,-15.7667,128.7333,300.14,78,98,2.06,AU,04-02-2025
438,massenya,11.4039,16.1705,302.73,13,19,3.66,TD,03-02-2025
439,fontanelas,38.8472,-9.4372,288.15,43,0,3.6,PT,03-02-2025
440,qusmuryn,52.4503,64.6311,261.86,93,100,1.9,KZ,03-02-2025
441,guarapari,-20.6667,-40.4975,301.96,69,47,5.68,BR,03-02-2025
442,moapa valley,36.5805,-114.4703,292.53,28,93,1.46,US,03-02-2025
443,gaitania,3.0906,-75.6723,292.2,83,92,2.07,CO,03-02-2025
444,lorengau,-2.0226,147.2712,300.98,74,98,3.28,PG,04-02-2025
445,kamikawa,43.84,142.7711,270.1,80,100,4.48,JP,04-02-2025
446,fort st. john,56.2499,-120.8529,242.09,69,20,0.0,CA,03-02-2025
447,leava,-14.3,-178.1667,301.65,76,64,4.46,WF,04-02-2025
448,eberbach,49.4694,8.9928,273.3,83,41,1.05,DE,03-02-2025
449,kargopol',61.5071,38.9456,258.39,96,100,2.14,RU,03-02-2025
450,kristiansund,63.1115,7.732,277.51,81,75,2.57,NO,03-02-2025
451,la ronge,55.1001,-105.2842,249.29,70,75,8.75,CA,03-02-2025
452,lanzhou,36.0564,103.7922,265.39,90,11,1.55,CN,04-02-2025
453,nabire,-3.3667,135.4833,297.34,87,100,1.61,ID,04-02-2025
454,monze,-16.2833,27.4833,293.73,91,100,1.21,ZM,03-02-2025
455,naryn,41.4287,75.9911,258.33,56,5,5.04,KG,03-02-2025
456,kharkhorin,47.1975,102.8238,252.94,87,52,1.76,MN,04-02-2025
457,cannonvale,-20.2833,148.7,299.81,86,100,7.01,AU,04-02-2025
458,este,45.2229,11.6587,282.05,75,4,1.78,IT,03-02-2025
459,mankapur,27.0333,82.2333,288.67,39,11,3.25,IN,03-02-2025
460,gaomi,36.3833,119.7528,268.08,43,0,3.1,CN,04-02-2025
461,minas de matahambre,22.5887,-83.9447,302.91,46,81,3.91,CU,03-02-2025
462,moranbah,-22.0016,148.0466,294.36,97,100,5.86,AU,04-02-2025
463,olavarria,-36.8927,-60.3225,303.72,49,92,1.79,AR,03-02-2025
464,gizo,-8.103,156.8419,301.34,75,100,3.47,SB,04-02-2025
465,konstantinovsk,47.5828,41.0922,274.17,99,100,2.35,RU,03-02-2025
466,flying fish cove,-10.4217,105.6791,297.97,94,75,5.14,CX,04-02-2025
467,namsos,64.4662,11.4957,270.1,63,75,7.72,NO,03-02-2025
468,testour,36.5513,9.4431,283.47,92,65,4.11,TN,03-02-2025
469,morehead city,34.7229,-76.726,289.27,85,0,2.06,US,03-02-2025
470,kangding,30.0513,101.9603,274.08,80,47,0.53,CN,04-02-2025
471,miles city,46.4083,-105.8406,253.69,71,100,5.14,US,03-02-2025
472,pontes e lacerda,-15.2261,-59.3353,306.64,44,99,2.56,BR,03-02-2025
473,mahina,-17.5065,-149.489,301.02,69,20,1.03,PF,03-02-2025
474,jambi city,-1.6,103.6167,297.04,94,99,0.65,ID,04-02-2025
475,manokwari,-0.8667,134.0833,298.32,78,100,2.98,ID,04-02-2025
476,san pedro,14.35,121.0167,299.72,88,75,2.57,PH,04-02-2025
477,parintins,-2.6283,-56.7358,305.02,53,81,0.86,BR,03-02-2025
478,guacamayas,18.0167,-102.2167,303.42,47,1,3.34,MX,03-02-2025
479,kralendijk,12.15,-68.2667,302.14,70,75,8.75,BQ,03-02-2025
480,kurikka,62.6167,22.4167,260.39,99,91,0.97,FI,03-02-2025
481,frederico westphalen,-27.3592,-53.3944,309.36,21,11,1.82,BR,03-02-2025
482,belyy yar,53.6039,91.3903,257.09,92,40,0.0,RU,04-02-2025
483,santa rita do passa quatro,-21.7103,-47.4781,293.58,94,100,2.33,BR,03-02-2025
484,beloyarskiy,63.7119,66.6722,249.22,100,92,1.31,RU,03-02-2025
485,berdigestyakh,62.0989,126.6992,249.0,96,100,3.83,RU,04-02-2025
486,toliara,-23.35,43.6667,301.27,61,99,8.32,MG,03-02-2025
487,nuku'alofa,-21.1333,-175.2,298.34,88,75,2.06,TO,04-02-2025
488,gazojak,41.1875,61.4036,275.83,46,94,3.24,TM,03-02-2025
489,weyburn,49.6668,-103.8511,246.27,69,59,7.72,CA,03-02-2025
490,gaalkacyo,6.7697,47.4308,296.36,44,47,8.89,SO,03-02-2025
491,khash,28.2211,61.2158,279.71,33,10,2.44,IR,03-02-2025
492,al badari,26.9926,31.4155,291.5,23,100,1.75,EG,03-02-2025
493,bull savanna,17.8868,-77.5902,299.51,65,99,5.86,JM,03-02-2025
494,quelimane,-17.8786,36.8883,298.47,94,97,2.97,MZ,03-02-2025
495,kish,26.5578,54.0194,293.3,42,0,3.09,IR,03-02-2025
496,charters towers,-20.1,146.2667,294.62,96,100,7.07,AU,04-02-2025
497,key largo,25.0865,-80.4473,298.71,82,53,5.29,US,03-02-2025
498,katabu,-4.9333,122.5167,297.7,91,100,0.16,ID,04-02-2025
499,prince rupert,54.3161,-130.3201,266.98,45,3,7.72,CA,03-02-2025
500,roxas city,11.5853,122.7511,298.25,84,75,4.4,PH,04-02-2025
501,ar rutbah,33.0381,40.2848,286.33,28,95,2.49,IQ,03-02-2025
502,tosontsengel,48.7567,98.2839,249.97,100,100,1.29,MN,04-02-2025
503,port arthur,38.8,121.2667,264.27,55,100,7.33,CN,04-02-2025
504,t'aebaek,37.1759,128.9889,257.33,78,48,5.39,KR,04-02-2025
505,mtwara,-10.2667,40.1833,300.05,86,97,5.12,TZ,03-02-2025
506,nelson bay,-32.7167,152.15,295.98,92,86,2.24,AU,04-02-2025
507,kourou,5.1552,-52.6478,298.63,86,100,4.01,GF,03-02-2025
508,radhanpur,23.8333,71.6,294.73,29,93,3.81,IN,03-02-2025
509,sestri levante,44.2732,9.3968,284.17,75,4,0.89,IT,03-02-2025
510,uvarovo,51.9849,42.2615,271.11,71,93,1.29,RU,03-02-2025
511,mandalgovi,45.7625,106.2708,252.42,86,64,5.32,MN,04-02-2025
512,antonio enes,-16.2325,39.9086,300.58,84,100,2.79,MZ,03-02-2025
513,narvik,68.4384,17.4272,263.04,68,35,5.73,NO,03-02-2025
514,lauro de freitas,-12.8944,-38.3272,304.16,66,40,5.66,BR,03-02-2025
515,suva,-18.1416,178.4415,296.86,100,75,1.54,FJ,04-02-2025
516,el nido,11.1858,119.3956,297.67,93,37,3.73,PH,04-02-2025
517,leer,53.2316,7.461,274.79,92,70,3.16,DE,03-02-2025
518,port nelson,23.6333,-74.8333,297.67,76,8,7.57,BS,03-02-2025
519,piti village,13.4626,144.6933,298.32,88,0,3.6,GU,04-02-2025
520,robore,-18.3333,-59.75,307.2,52,20,4.12,BO,03-02-2025
521,kutahya,39.4242,29.9833,278.42,75,21,1.23,TR,03-02-2025
522,nuriootpa,-34.4833,139.0,298.88,44,99,1.49,AU,04-02-2025
523,tutoia,-2.7619,-42.2744,299.96,82,100,4.84,BR,03-02-2025
524,ballycastle,55.2044,-6.243,284.56,69,100,9.82,GB,03-02-2025
525,kendari,-3.945,122.4989,297.8,92,100,0.69,ID,04-02-2025
526,pontianak,-0.0333,109.3333,297.57,91,99,2.55,ID,04-02-2025
527,lekki,6.3607,4.8333,301.03,74,46,3.29,NG,03-02-2025
528,quixeramobim,-5.1992,-39.2928,307.09,30,98,3.61,BR,03-02-2025
529,new martinsville,39.6445,-80.8576,289.08,63,90,3.13,US,03-02-2025
530,masterton,-40.9597,175.6575,284.3,94,1,1.39,NZ,04-02-2025
531,zhangye,38.9342,100.4517,263.18,53,0,2.35,CN,04-02-2025
532,laguna,38.421,-121.4238,286.74,85,100,2.57,US,03-02-2025
533,island harbour,50.724,-1.2758,280.38,88,51,0.89,GB,03-02-2025
534,taoudenni,22.6783,-3.9836,294.05,21,0,4.8,ML,03-02-2025
535,arar,30.9753,41.0381,288.16,23,0,2.57,SA,03-02-2025
536,sidney,-33.8679,151.2073,296.05,80,65,1.82,AU,04-02-2025
537,castlegar,49.2998,-117.6689,267.49,89,100,1.88,CA,03-02-2025
538,pimampiro,0.4,-77.9667,296.3,54,45,1.05,EC,03-02-2025
539,fort mcmurray,56.7268,-111.381,244.92,76,100,3.6,CA,03-02-2025
540,bengkulu,-3.8004,102.2655,298.41,89,100,2.39,ID,04-02-2025
541,sola,-13.8833,167.55,301.03,78,96,6.23,VU,04-02-2025
542,shimoda,34.6667,138.95,279.37,54,37,10.91,JP,04-02-2025
543,qina,26.1642,32.7267,294.75,17,92,1.64,EG,03-02-2025
544,broome,42.2506,-75.833,277.4,84,100,4.12,US,03-02-2025
545,bubaque,11.2833,-15.8333,298.88,53,70,4.44,GW,03-02-2025
546,markovo,57.3206,107.0881,241.91,100,85,1.73,RU,04-02-2025
547,bodo,67.28,14.405,267.17,45,0,14.4,NO,03-02-2025
